{"ano": 2023, "anos_disponiveis": [2014, 2015, 2016, 2017, 2018, 2019, 2020, 2021, 2022, 2023], "municipios": {"1100015": {"codmunicipio": "1100015", "nome": "Alta Floresta D'Oeste", "uf": "RO", "regiao": "Norte", "lat": -11.0461, "lon": -63.6512, "populacao": 8263, "icvs": 81.16, "sub_desfechos": 74.58, "sub_acesso": 100, "sub_qualidade": 65.32, "icvs_quintil": 5, "cluster": 3}, "1100023": {"codmunicipio": "1100023", "nome": "Ariquemes", "uf": "RO", "regiao": "Norte", "lat": -11.0214, "lon": -66.0352, "populacao": 12709, "icvs": 91.03, "sub_desfechos": 90.65, "sub_acesso": 96.69, "sub_qualidade": 83.71, "icvs_quintil": 5, "cluster": 3}, "1100031": {"codmunicipio": "1100031", "nome": "Cabixi", "uf": "RO", "regiao": "Norte", "lat": -10.4816, "lon": -61.2456, "populacao": 29550, "icvs": 69.71, "sub_desfechos": 64.9, "sub_acesso": 67.63, "sub_qualidade": 80.31, "icvs_quintil": 5, "cluster": 4}, "1100049": {"codmunicipio": "1100049", "nome": "Cacoal", "uf": "RO", "regiao": "Norte", "lat": -10.4605, "lon": -60.9801, "populacao": 120744, "icvs": 48.97, "sub_desfechos": 52.01, "sub_acesso": 47.18, "sub_qualidade": 46.59, "icvs_quintil": 3, "cluster": 1}, "1100056": {"codmunicipio": "1100056", "nome": "Cerejeiras", "uf": "RO", "regiao": "Norte", "lat": -11.2984, "lon": -62.4573, "populacao": 61981, "icvs": 49.21, "sub_desfechos": 31.83, "sub_acesso": 60.44, "sub_qualidade": 61.29, "icvs_quintil": 3, "cluster": 5}, "1100064": {"codmunicipio": "1100064", "nome": "Colorado do Oeste", "uf": "RO", "regiao": "Norte", "lat": -10.2651, "lon": -62.8932, "populacao": 91220, "icvs": 79.36, "sub_desfechos": 81.48, "sub_acesso": 80.6, "sub_qualidade": 74.23, "icvs_quintil": 5, "cluster": 5}, "1100072": {"codmunicipio": "1100072", "nome": "Corumbiara", "uf": "RO", "regiao": "Norte", "lat": -9.9776, "lon": -66.0661, "populacao": 240370, "icvs": 78.03, "sub_desfechos": 87.49, "sub_acesso": 62.89, "sub_qualidade": 84.07, "icvs_quintil": 5, "cluster": 1}, "1100080": {"codmunicipio": "1100080", "nome": "Costa Marques", "uf": "RO", "regiao": "Norte", "lat": -12.2037, "lon": -61.7632, "populacao": 88735, "icvs": 85.91, "sub_desfechos": 80.92, "sub_acesso": 95.27, "sub_qualidade": 80.8, "icvs_quintil": 5, "cluster": 5}, "1100098": {"codmunicipio": "1100098", "nome": "Espigão D'Oeste", "uf": "RO", "regiao": "Norte", "lat": -9.559, "lon": -65.144, "populacao": 23322, "icvs": 40.42, "sub_desfechos": 43.87, "sub_acesso": 33.03, "sub_qualidade": 45.26, "icvs_quintil": 3, "cluster": 4}, "1100106": {"codmunicipio": "1100106", "nome": "Guajará-Mirim", "uf": "RO", "regiao": "Norte", "lat": -10.6584, "lon": -61.8665, "populacao": 4857, "icvs": 89.61, "sub_desfechos": 82.36, "sub_acesso": 97.67, "sub_qualidade": 89.92, "icvs_quintil": 5, "cluster": 3}, "1100114": {"codmunicipio": "1100114", "nome": "Jaru", "uf": "RO", "regiao": "Norte", "lat": -9.8551, "lon": -62.4787, "populacao": 23285, "icvs": 70.63, "sub_desfechos": 78.04, "sub_acesso": 59.01, "sub_qualidade": 75.05, "icvs_quintil": 5, "cluster": 4}, "1100122": {"codmunicipio": "1100122", "nome": "Ji-Paraná", "uf": "RO", "regiao": "Norte", "lat": -11.535, "lon": -62.4412, "populacao": 32711, "icvs": 50.25, "sub_desfechos": 58.39, "sub_acesso": 41.33, "sub_qualidade": 49.73, "icvs_quintil": 3, "cluster": 4}, "1100130": {"codmunicipio": "1100130", "nome": "Machadinho D'Oeste", "uf": "RO", "regiao": "Norte", "lat": -9.6773, "lon": -60.7807, "populacao": 4910, "icvs": 60.34, "sub_desfechos": 62.3, "sub_acesso": 54.25, "sub_qualidade": 65.73, "icvs_quintil": 4, "cluster": 3}, "1100148": {"codmunicipio": "1100148", "nome": "Nova Brasilândia D'Oeste", "uf": "RO", "regiao": "Norte", "lat": -8.6905, "lon": -63.5092, "populacao": 21753, "icvs": 43.95, "sub_desfechos": 42.84, "sub_acesso": 43.6, "sub_qualidade": 46.22, "icvs_quintil": 3, "cluster": 4}, "1100155": {"codmunicipio": "1100155", "nome": "Ouro Preto do Oeste", "uf": "RO", "regiao": "Norte", "lat": -9.4007, "lon": -65.9386, "populacao": 8928, "icvs": 63.79, "sub_desfechos": 59.74, "sub_acesso": 66.51, "sub_qualidade": 66.45, "icvs_quintil": 5, "cluster": 3}, "1100189": {"codmunicipio": "1100189", "nome": "Pimenta Bueno", "uf": "RO", "regiao": "Norte", "lat": -9.9588, "lon": -59.1615, "populacao": 46461, "icvs": 61.16, "sub_desfechos": 69.66, "sub_acesso": 57.09, "sub_qualidade": 53.26, "icvs_quintil": 4, "cluster": 4}, "1100205": {"codmunicipio": "1100205", "nome": "Porto Velho", "uf": "RO", "regiao": "Norte", "lat": -11.6727, "lon": -64.8368, "populacao": 72607, "icvs": 46.58, "sub_desfechos": 57.72, "sub_acesso": 42.13, "sub_qualidade": 34.99, "icvs_quintil": 3, "cluster": 5}, "1100254": {"codmunicipio": "1100254", "nome": "Presidente Médici", "uf": "RO", "regiao": "Norte", "lat": -10.9354, "lon": -61.9913, "populacao": 17803, "icvs": 67.61, "sub_desfechos": 65.35, "sub_acesso": 64.32, "sub_qualidade": 75.84, "icvs_quintil": 5, "cluster": 3}, "1100262": {"codmunicipio": "1100262", "nome": "Rio Crespo", "uf": "RO", "regiao": "Norte", "lat": -13.5919, "lon": -65.2885, "populacao": 11504, "icvs": 97.15, "sub_desfechos": 100, "sub_acesso": 99.84, "sub_qualidade": 88.81, "icvs_quintil": 5, "cluster": 3}, "1100288": {"codmunicipio": "1100288", "nome": "Rolim de Moura", "uf": "RO", "regiao": "Norte", "lat": -9.0398, "lon": -63.3732, "populacao": 1735, "icvs": 79.91, "sub_desfechos": 80.11, "sub_acesso": 84.99, "sub_qualidade": 72.45, "icvs_quintil": 5, "cluster": 3}, "1100296": {"codmunicipio": "1100296", "nome": "Santa Luzia D'Oeste", "uf": "RO", "regiao": "Norte", "lat": -10.4195, "lon": -65.1597, "populacao": 3507, "icvs": 58.05, "sub_desfechos": 60.04, "sub_acesso": 52.8, "sub_qualidade": 62.23, "icvs_quintil": 4, "cluster": 3}, "1100304": {"codmunicipio": "1100304", "nome": "Vilhena", "uf": "RO", "regiao": "Norte", "lat": -8.9896, "lon": -63.3938, "populacao": 33647, "icvs": 95.21, "sub_desfechos": 89.83, "sub_acesso": 100, "sub_qualidade": 97.11, "icvs_quintil": 5, "cluster": 4}, "1100320": {"codmunicipio": "1100320", "nome": "São Miguel do Guaporé", "uf": "RO", "regiao": "Norte", "lat": -11.0565, "lon": -60.778, "populacao": 3644, "icvs": 59.48, "sub_desfechos": 65.35, "sub_acesso": 46.27, "sub_qualidade": 68.58, "icvs_quintil": 4, "cluster": 3}, "1100338": {"codmunicipio": "1100338", "nome": "Nova Mamoré", "uf": "RO", "regiao": "Norte", "lat": -14.3938, "lon": -62.0603, "populacao": 42882, "icvs": 67.89, "sub_desfechos": 64.39, "sub_acesso": 76.86, "sub_qualidade": 60.94, "icvs_quintil": 5, "cluster": 4}, "1100346": {"codmunicipio": "1100346", "nome": "Alvorada D'Oeste", "uf": "RO", "regiao": "Norte", "lat": -11.7711, "lon": -63.3442, "populacao": 4753, "icvs": 30.99, "sub_desfechos": 34.94, "sub_acesso": 29.8, "sub_qualidade": 26.33, "icvs_quintil": 2, "cluster": 3}, "1100379": {"codmunicipio": "1100379", "nome": "Alto Alegre dos Parecis", "uf": "RO", "regiao": "Norte", "lat": -11.4992, "lon": -63.9957, "populacao": 48486, "icvs": 55.78, "sub_desfechos": 41.68, "sub_acesso": 67.18, "sub_qualidade": 62.38, "icvs_quintil": 4, "cluster": 4}, "1100403": {"codmunicipio": "1100403", "nome": "Alto Paraíso", "uf": "RO", "regiao": "Norte", "lat": -10.5001, "lon": -65.5173, "populacao": 9849, "icvs": 61.95, "sub_desfechos": 56.53, "sub_acesso": 66.51, "sub_qualidade": 64.23, "icvs_quintil": 4, "cluster": 3}, "1100452": {"codmunicipio": "1100452", "nome": "Buritis", "uf": "RO", "regiao": "Norte", "lat": -8.2114, "lon": -66.3656, "populacao": 2853, "icvs": 76.87, "sub_desfechos": 67.87, "sub_acesso": 92.08, "sub_qualidade": 69.98, "icvs_quintil": 5, "cluster": 3}, "1100502": {"codmunicipio": "1100502", "nome": "Novo Horizonte do Oeste", "uf": "RO", "regiao": "Norte", "lat": -8.5297, "lon": -62.0577, "populacao": 28104, "icvs": 54.66, "sub_desfechos": 53.77, "sub_acesso": 53.33, "sub_qualidade": 57.95, "icvs_quintil": 4, "cluster": 4}, "1100601": {"codmunicipio": "1100601", "nome": "Cacaulândia", "uf": "RO", "regiao": "Norte", "lat": -12.7023, "lon": -62.9882, "populacao": 12271, "icvs": 58.75, "sub_desfechos": 53.49, "sub_acesso": 59.42, "sub_qualidade": 66.22, "icvs_quintil": 4, "cluster": 3}, "1100700": {"codmunicipio": "1100700", "nome": "Campo Novo de Rondônia", "uf": "RO", "regiao": "Norte", "lat": -13.1835, "lon": -64.0518, "populacao": 6136, "icvs": 50.26, "sub_desfechos": 48.48, "sub_acesso": 49.65, "sub_qualidade": 53.94, "icvs_quintil": 3, "cluster": 3}, "1100809": {"codmunicipio": "1100809", "nome": "Candeias do Jamari", "uf": "RO", "regiao": "Norte", "lat": -8.6578, "lon": -63.4195, "populacao": 11517, "icvs": 56.54, "sub_desfechos": 47.42, "sub_acesso": 58.0, "sub_qualidade": 69.09, "icvs_quintil": 4, "cluster": 3}, "1100908": {"codmunicipio": "1100908", "nome": "Castanheiras", "uf": "RO", "regiao": "Norte", "lat": -10.0545, "lon": -62.455, "populacao": 6675, "icvs": 80.43, "sub_desfechos": 85.9, "sub_acesso": 78.21, "sub_qualidade": 74.8, "icvs_quintil": 5, "cluster": 3}, "1100924": {"codmunicipio": "1100924", "nome": "Chupinguaia", "uf": "RO", "regiao": "Norte", "lat": -10.6982, "lon": -62.0803, "populacao": 1368, "icvs": 61.47, "sub_desfechos": 53.69, "sub_acesso": 66.23, "sub_qualidade": 67.25, "icvs_quintil": 4, "cluster": 3}, "1100940": {"codmunicipio": "1100940", "nome": "Cujubim", "uf": "RO", "regiao": "Norte", "lat": -10.4002, "lon": -59.465, "populacao": 2940, "icvs": 58.06, "sub_desfechos": 57.58, "sub_acesso": 55.59, "sub_qualidade": 62.29, "icvs_quintil": 4, "cluster": 3}, "1101005": {"codmunicipio": "1101005", "nome": "Governador Jorge Teixeira", "uf": "RO", "regiao": "Norte", "lat": -10.6519, "lon": -62.4051, "populacao": 121286, "icvs": 65.53, "sub_desfechos": 62.27, "sub_acesso": 72.04, "sub_qualidade": 61.62, "icvs_quintil": 5, "cluster": 1}, "1101104": {"codmunicipio": "1101104", "nome": "Itapuã do Oeste", "uf": "RO", "regiao": "Norte", "lat": -13.4199, "lon": -62.801, "populacao": 32784, "icvs": 58.23, "sub_desfechos": 51.54, "sub_acesso": 59.81, "sub_qualidade": 66.73, "icvs_quintil": 4, "cluster": 4}, "1101203": {"codmunicipio": "1101203", "nome": "Ministro Andreazza", "uf": "RO", "regiao": "Norte", "lat": -9.5234, "lon": -62.2464, "populacao": 11165, "icvs": 70.21, "sub_desfechos": 81.33, "sub_acesso": 53.34, "sub_qualidade": 76.05, "icvs_quintil": 5, "cluster": 3}, "1101302": {"codmunicipio": "1101302", "nome": "Mirante da Serra", "uf": "RO", "regiao": "Norte", "lat": -11.1242, "lon": -66.0094, "populacao": 11074, "icvs": 98.03, "sub_desfechos": 100, "sub_acesso": 94.38, "sub_qualidade": 100, "icvs_quintil": 5, "cluster": 3}, "1101401": {"codmunicipio": "1101401", "nome": "Monte Negro", "uf": "RO", "regiao": "Norte", "lat": -10.0979, "lon": -64.3796, "populacao": 4718, "icvs": 43.3, "sub_desfechos": 35.67, "sub_acesso": 49.71, "sub_qualidade": 46.52, "icvs_quintil": 3, "cluster": 3}, "1101435": {"codmunicipio": "1101435", "nome": "Nova União", "uf": "RO", "regiao": "Norte", "lat": -11.899, "lon": -62.6544, "populacao": 6447, "icvs": 39.69, "sub_desfechos": 43.66, "sub_acesso": 38.81, "sub_qualidade": 34.56, "icvs_quintil": 3, "cluster": 3}, "1101450": {"codmunicipio": "1101450", "nome": "Parecis", "uf": "RO", "regiao": "Norte", "lat": -11.2894, "lon": -63.5204, "populacao": 35484, "icvs": 40.27, "sub_desfechos": 55.4, "sub_acesso": 28.3, "sub_qualidade": 32.83, "icvs_quintil": 3, "cluster": 4}, "1101468": {"codmunicipio": "1101468", "nome": "Pimenteiras do Oeste", "uf": "RO", "regiao": "Norte", "lat": -11.866, "lon": -63.2275, "populacao": 12081, "icvs": 55.58, "sub_desfechos": 53.67, "sub_acesso": 61.94, "sub_qualidade": 49.71, "icvs_quintil": 4, "cluster": 3}, "1101476": {"codmunicipio": "1101476", "nome": "Primavera de Rondônia", "uf": "RO", "regiao": "Norte", "lat": -13.9875, "lon": -59.7356, "populacao": 1599, "icvs": 74.11, "sub_desfechos": 73.87, "sub_acesso": 80.35, "sub_qualidade": 65.76, "icvs_quintil": 5, "cluster": 3}, "1101484": {"codmunicipio": "1101484", "nome": "São Felipe D'Oeste", "uf": "RO", "regiao": "Norte", "lat": -12.3407, "lon": -62.8134, "populacao": 22550, "icvs": 57.06, "sub_desfechos": 45.54, "sub_acesso": 76.77, "sub_qualidade": 47.9, "icvs_quintil": 4, "cluster": 4}, "1101492": {"codmunicipio": "1101492", "nome": "São Francisco do Guaporé", "uf": "RO", "regiao": "Norte", "lat": -10.1213, "lon": -62.092, "populacao": 21172, "icvs": 62.4, "sub_desfechos": 70.6, "sub_acesso": 59.14, "sub_qualidade": 53.82, "icvs_quintil": 4, "cluster": 4}, "1101500": {"codmunicipio": "1101500", "nome": "Seringueiras", "uf": "RO", "regiao": "Norte", "lat": -8.9697, "lon": -62.5018, "populacao": 15609, "icvs": 63.65, "sub_desfechos": 68.08, "sub_acesso": 50.34, "sub_qualidade": 75.19, "icvs_quintil": 5, "cluster": 3}, "1101559": {"codmunicipio": "1101559", "nome": "Teixeirópolis", "uf": "RO", "regiao": "Norte", "lat": -8.7327, "lon": -59.5122, "populacao": 5188, "icvs": 66.91, "sub_desfechos": 79.16, "sub_acesso": 57.9, "sub_qualidade": 59.92, "icvs_quintil": 5, "cluster": 3}, "1101609": {"codmunicipio": "1101609", "nome": "Theobroma", "uf": "RO", "regiao": "Norte", "lat": -12.6903, "lon": -64.8578, "populacao": 8074, "icvs": 58.58, "sub_desfechos": 78.09, "sub_acesso": 45.07, "sub_qualidade": 46.26, "icvs_quintil": 4, "cluster": 3}, "1101708": {"codmunicipio": "1101708", "nome": "Urupá", "uf": "RO", "regiao": "Norte", "lat": -9.9597, "lon": -64.2008, "populacao": 25009, "icvs": 79.54, "sub_desfechos": 81.14, "sub_acesso": 93.24, "sub_qualidade": 57.79, "icvs_quintil": 5, "cluster": 4}, "1101757": {"codmunicipio": "1101757", "nome": "Vale do Anari", "uf": "RO", "regiao": "Norte", "lat": -12.5655, "lon": -62.1819, "populacao": 30764, "icvs": 41.13, "sub_desfechos": 34.93, "sub_acesso": 44.82, "sub_qualidade": 45.88, "icvs_quintil": 3, "cluster": 4}, "1101807": {"codmunicipio": "1101807", "nome": "Vale do Paraíso", "uf": "RO", "regiao": "Norte", "lat": -10.1552, "lon": -60.6004, "populacao": 6157, "icvs": 85.82, "sub_desfechos": 75.64, "sub_acesso": 88.44, "sub_qualidade": 98.43, "icvs_quintil": 5, "cluster": 3}, "1200013": {"codmunicipio": "1200013", "nome": "Acrelândia", "uf": "AC", "regiao": "Norte", "lat": -10.5685, "lon": -69.1499, "populacao": 3264, "icvs": 87.96, "sub_desfechos": 86.06, "sub_acesso": 99.73, "sub_qualidade": 74.51, "icvs_quintil": 5, "cluster": 3}, "1200054": {"codmunicipio": "1200054", "nome": "Assis Brasil", "uf": "AC", "regiao": "Norte", "lat": -8.4787, "lon": -66.9327, "populacao": 4911, "icvs": 78.28, "sub_desfechos": 80.57, "sub_acesso": 81.66, "sub_qualidade": 69.87, "icvs_quintil": 5, "cluster": 3}, "1200104": {"codmunicipio": "1200104", "nome": "Brasiléia", "uf": "AC", "regiao": "Norte", "lat": -10.3028, "lon": -63.6409, "populacao": 10904, "icvs": 81.87, "sub_desfechos": 87.41, "sub_acesso": 79.97, "sub_qualidade": 75.68, "icvs_quintil": 5, "cluster": 3}, "1200138": {"codmunicipio": "1200138", "nome": "Bujari", "uf": "AC", "regiao": "Norte", "lat": -8.7952, "lon": -70.2372, "populacao": 38084, "icvs": 74.64, "sub_desfechos": 56.58, "sub_acesso": 95.72, "sub_qualidade": 74.01, "icvs_quintil": 5, "cluster": 4}, "1200179": {"codmunicipio": "1200179", "nome": "Capixaba", "uf": "AC", "regiao": "Norte", "lat": -11.8064, "lon": -71.4515, "populacao": 2453, "icvs": 75.54, "sub_desfechos": 82.6, "sub_acesso": 75.96, "sub_qualidade": 63.65, "icvs_quintil": 5, "cluster": 3}, "1200203": {"codmunicipio": "1200203", "nome": "Cruzeiro do Sul", "uf": "AC", "regiao": "Norte", "lat": -10.2561, "lon": -65.3813, "populacao": 26326, "icvs": 66.78, "sub_desfechos": 50.94, "sub_acesso": 84.49, "sub_qualidade": 67.33, "icvs_quintil": 5, "cluster": 4}, "1200252": {"codmunicipio": "1200252", "nome": "Epitaciolândia", "uf": "AC", "regiao": "Norte", "lat": -10.7509, "lon": -68.8627, "populacao": 11689, "icvs": 95.11, "sub_desfechos": 100, "sub_acesso": 100, "sub_qualidade": 80.43, "icvs_quintil": 5, "cluster": 3}, "1200302": {"codmunicipio": "1200302", "nome": "Feijó", "uf": "AC", "regiao": "Norte", "lat": -9.5952, "lon": -68.4621, "populacao": 12067, "icvs": 57.06, "sub_desfechos": 57.81, "sub_acesso": 59.87, "sub_qualidade": 51.94, "icvs_quintil": 4, "cluster": 3}, "1200328": {"codmunicipio": "1200328", "nome": "Jordão", "uf": "AC", "regiao": "Norte", "lat": -7.3947, "lon": -67.7411, "populacao": 21988, "icvs": 83.1, "sub_desfechos": 78.08, "sub_acesso": 78.01, "sub_qualidade": 98.26, "icvs_quintil": 5, "cluster": 4}, "1200336": {"codmunicipio": "1200336", "nome": "Mâncio Lima", "uf": "AC", "regiao": "Norte", "lat": -10.0746, "lon": -70.0866, "populacao": 12906, "icvs": 87.31, "sub_desfechos": 100, "sub_acesso": 77.5, "sub_qualidade": 80.76, "icvs_quintil": 5, "cluster": 3}, "1200344": {"codmunicipio": "1200344", "nome": "Manoel Urbano", "uf": "AC", "regiao": "Norte", "lat": -7.203, "lon": -66.1117, "populacao": 93502, "icvs": 80.26, "sub_desfechos": 78.32, "sub_acesso": 76.14, "sub_qualidade": 89.12, "icvs_quintil": 5, "cluster": 5}, "1200351": {"codmunicipio": "1200351", "nome": "Marechal Thaumaturgo", "uf": "AC", "regiao": "Norte", "lat": -8.9651, "lon": -69.8609, "populacao": 6539, "icvs": 45.33, "sub_desfechos": 53.51, "sub_acesso": 28.49, "sub_qualidade": 55.82, "icvs_quintil": 3, "cluster": 3}, "1200385": {"codmunicipio": "1200385", "nome": "Plácido de Castro", "uf": "AC", "regiao": "Norte", "lat": -11.1196, "lon": -64.2111, "populacao": 42423, "icvs": 69.39, "sub_desfechos": 69.77, "sub_acesso": 66.64, "sub_qualidade": 72.62, "icvs_quintil": 5, "cluster": 4}, "1200393": {"codmunicipio": "1200393", "nome": "Porto Walter", "uf": "AC", "regiao": "Norte", "lat": -9.9679, "lon": -66.9716, "populacao": 9024, "icvs": 74.21, "sub_desfechos": 75.43, "sub_acesso": 63.64, "sub_qualidade": 87.04, "icvs_quintil": 5, "cluster": 3}, "1200401": {"codmunicipio": "1200401", "nome": "Rio Branco", "uf": "AC", "regiao": "Norte", "lat": -8.0182, "lon": -64.3843, "populacao": 35893, "icvs": 59.13, "sub_desfechos": 61.16, "sub_acesso": 59.06, "sub_qualidade": 55.96, "icvs_quintil": 4, "cluster": 4}, "1200427": {"codmunicipio": "1200427", "nome": "Rodrigues Alves", "uf": "AC", "regiao": "Norte", "lat": -9.8031, "lon": -68.6474, "populacao": 800, "icvs": 35.21, "sub_desfechos": 41.96, "sub_acesso": 29.75, "sub_qualidade": 32.07, "icvs_quintil": 2, "cluster": 3}, "1200435": {"codmunicipio": "1200435", "nome": "Santa Rosa do Purus", "uf": "AC", "regiao": "Norte", "lat": -11.2104, "lon": -67.4308, "populacao": 32957, "icvs": 70.06, "sub_desfechos": 56.45, "sub_acesso": 86.4, "sub_qualidade": 68.95, "icvs_quintil": 5, "cluster": 4}, "1200450": {"codmunicipio": "1200450", "nome": "Senador Guiomard", "uf": "AC", "regiao": "Norte", "lat": -8.9982, "lon": -67.6353, "populacao": 1107, "icvs": 51.15, "sub_desfechos": 52.26, "sub_acesso": 59.05, "sub_qualidade": 38.32, "icvs_quintil": 4, "cluster": 3}, "1200500": {"codmunicipio": "1200500", "nome": "Sena Madureira", "uf": "AC", "regiao": "Norte", "lat": -8.7826, "lon": -68.1108, "populacao": 24366, "icvs": 69.23, "sub_desfechos": 66.82, "sub_acesso": 79.07, "sub_qualidade": 59.32, "icvs_quintil": 5, "cluster": 4}, "1200609": {"codmunicipio": "1200609", "nome": "Tarauacá", "uf": "AC", "regiao": "Norte", "lat": -8.1236, "lon": -68.0737, "populacao": 54837, "icvs": 66.84, "sub_desfechos": 73.5, "sub_acesso": 55.4, "sub_qualidade": 72.2, "icvs_quintil": 5, "cluster": 5}, "1200708": {"codmunicipio": "1200708", "nome": "Xapuri", "uf": "AC", "regiao": "Norte", "lat": -8.7256, "lon": -66.5997, "populacao": 29772, "icvs": 85.42, "sub_desfechos": 87.83, "sub_acesso": 87.41, "sub_qualidade": 78.76, "icvs_quintil": 5, "cluster": 4}, "1200807": {"codmunicipio": "1200807", "nome": "Porto Acre", "uf": "AC", "regiao": "Norte", "lat": -11.3802, "lon": -69.1433, "populacao": 8583, "icvs": 88.79, "sub_desfechos": 84.1, "sub_acesso": 100, "sub_qualidade": 80.61, "icvs_quintil": 5, "cluster": 3}, "1300029": {"codmunicipio": "1300029", "nome": "Alvarães", "uf": "AM", "regiao": "Norte", "lat": -3.5399, "lon": -62.2738, "populacao": 19889, "icvs": 57.94, "sub_desfechos": 69.46, "sub_acesso": 48.23, "sub_qualidade": 53.11, "icvs_quintil": 4, "cluster": 3}, "1300060": {"codmunicipio": "1300060", "nome": "Amaturá", "uf": "AM", "regiao": "Norte", "lat": -3.583, "lon": -67.7792, "populacao": 11106, "icvs": 60.99, "sub_desfechos": 61.96, "sub_acesso": 50.21, "sub_qualidade": 74.53, "icvs_quintil": 4, "cluster": 3}, "1300086": {"codmunicipio": "1300086", "nome": "Anamã", "uf": "AM", "regiao": "Norte", "lat": -4.1591, "lon": -66.4832, "populacao": 1206, "icvs": 51.43, "sub_desfechos": 60.43, "sub_acesso": 46.69, "sub_qualidade": 43.65, "icvs_quintil": 4, "cluster": 3}, "1300102": {"codmunicipio": "1300102", "nome": "Anori", "uf": "AM", "regiao": "Norte", "lat": -3.7095, "lon": -66.5939, "populacao": 7724, "icvs": 80.49, "sub_desfechos": 83.37, "sub_acesso": 76.42, "sub_qualidade": 81.56, "icvs_quintil": 5, "cluster": 3}, "1300144": {"codmunicipio": "1300144", "nome": "Apuí", "uf": "AM", "regiao": "Norte", "lat": -4.497, "lon": -64.2327, "populacao": 3991, "icvs": 68.08, "sub_desfechos": 64.28, "sub_acesso": 63.58, "sub_qualidade": 80.44, "icvs_quintil": 5, "cluster": 3}, "1300201": {"codmunicipio": "1300201", "nome": "Atalaia do Norte", "uf": "AM", "regiao": "Norte", "lat": -1.3705, "lon": -66.0909, "populacao": 129641, "icvs": 63.1, "sub_desfechos": 57.16, "sub_acesso": 72.6, "sub_qualidade": 59.31, "icvs_quintil": 4, "cluster": 1}, "1300300": {"codmunicipio": "1300300", "nome": "Autazes", "uf": "AM", "regiao": "Norte", "lat": -4.0648, "lon": -62.947, "populacao": 10637, "icvs": 76.25, "sub_desfechos": 69.89, "sub_acesso": 86.07, "sub_qualidade": 72.68, "icvs_quintil": 5, "cluster": 3}, "1300409": {"codmunicipio": "1300409", "nome": "Barcelos", "uf": "AM", "regiao": "Norte", "lat": -4.4156, "lon": -66.763, "populacao": 12892, "icvs": 80.02, "sub_desfechos": 79.11, "sub_acesso": 83.62, "sub_qualidade": 76.43, "icvs_quintil": 5, "cluster": 3}, "1300508": {"codmunicipio": "1300508", "nome": "Barreirinha", "uf": "AM", "regiao": "Norte", "lat": -6.6515, "lon": -64.4506, "populacao": 31249, "icvs": 66.32, "sub_desfechos": 71.89, "sub_acesso": 60.58, "sub_qualidade": 65.45, "icvs_quintil": 5, "cluster": 4}, "1300607": {"codmunicipio": "1300607", "nome": "Benjamin Constant", "uf": "AM", "regiao": "Norte", "lat": -1.9146, "lon": -63.9994, "populacao": 22639, "icvs": 74.94, "sub_desfechos": 74.36, "sub_acesso": 75.74, "sub_qualidade": 74.75, "icvs_quintil": 5, "cluster": 4}, "1300631": {"codmunicipio": "1300631", "nome": "Beruri", "uf": "AM", "regiao": "Norte", "lat": -2.4273, "lon": -67.8289, "populacao": 23732, "icvs": 83.54, "sub_desfechos": 86.42, "sub_acesso": 76.16, "sub_qualidade": 89.26, "icvs_quintil": 5, "cluster": 4}, "1300680": {"codmunicipio": "1300680", "nome": "Boa Vista do Ramos", "uf": "AM", "regiao": "Norte", "lat": -3.3652, "lon": -64.72, "populacao": 5513, "icvs": 39.36, "sub_desfechos": 54.99, "sub_acesso": 18.38, "sub_qualidade": 43.74, "icvs_quintil": 3, "cluster": 3}, "1300706": {"codmunicipio": "1300706", "nome": "Boca do Acre", "uf": "AM", "regiao": "Norte", "lat": -3.1279, "lon": -65.667, "populacao": 9321, "icvs": 100, "sub_desfechos": 100, "sub_acesso": 100, "sub_qualidade": 100, "icvs_quintil": 5, "cluster": 3}, "1300805": {"codmunicipio": "1300805", "nome": "Borba", "uf": "AM", "regiao": "Norte", "lat": -2.6778, "lon": -62.4885, "populacao": 14772, "icvs": 36.7, "sub_desfechos": 34.86, "sub_acesso": 40.74, "sub_qualidade": 33.99, "icvs_quintil": 2, "cluster": 3}, "1300839": {"codmunicipio": "1300839", "nome": "Caapiranga", "uf": "AM", "regiao": "Norte", "lat": -3.558, "lon": -65.2577, "populacao": 141851, "icvs": 53.86, "sub_desfechos": 65.06, "sub_acesso": 35.68, "sub_qualidade": 61.41, "icvs_quintil": 4, "cluster": 1}, "1300904": {"codmunicipio": "1300904", "nome": "Canutama", "uf": "AM", "regiao": "Norte", "lat": -2.2325, "lon": -63.9242, "populacao": 15595, "icvs": 66.05, "sub_desfechos": 69.36, "sub_acesso": 57.5, "sub_qualidade": 72.75, "icvs_quintil": 5, "cluster": 3}, "1301001": {"codmunicipio": "1301001", "nome": "Carauari", "uf": "AM", "regiao": "Norte", "lat": -3.4553, "lon": -61.6041, "populacao": 9551, "icvs": 35.87, "sub_desfechos": 43.02, "sub_acesso": 18.37, "sub_qualidade": 48.93, "icvs_quintil": 2, "cluster": 3}, "1301100": {"codmunicipio": "1301100", "nome": "Careiro", "uf": "AM", "regiao": "Norte", "lat": -5.6762, "lon": -69.7468, "populacao": 766007, "icvs": 31.51, "sub_desfechos": 41.71, "sub_acesso": 26.99, "sub_qualidade": 21.5, "icvs_quintil": 2, "cluster": 0}, "1301159": {"codmunicipio": "1301159", "nome": "Careiro da Várzea", "uf": "AM", "regiao": "Norte", "lat": -1.8665, "lon": -66.663, "populacao": 37321, "icvs": 93.05, "sub_desfechos": 87.84, "sub_acesso": 100, "sub_qualidade": 91.66, "icvs_quintil": 5, "cluster": 4}, "1301209": {"codmunicipio": "1301209", "nome": "Coari", "uf": "AM", "regiao": "Norte", "lat": -2.5536, "lon": -67.0835, "populacao": 13980, "icvs": 55.56, "sub_desfechos": 60.01, "sub_acesso": 44.89, "sub_qualidade": 63.38, "icvs_quintil": 4, "cluster": 3}, "1301308": {"codmunicipio": "1301308", "nome": "Codajás", "uf": "AM", "regiao": "Norte", "lat": -3.4329, "lon": -62.5356, "populacao": 47048, "icvs": 89.19, "sub_desfechos": 93.85, "sub_acesso": 96.28, "sub_qualidade": 71.81, "icvs_quintil": 5, "cluster": 4}, "1301407": {"codmunicipio": "1301407", "nome": "Eirunepé", "uf": "AM", "regiao": "Norte", "lat": -4.3105, "lon": -66.131, "populacao": 4438, "icvs": 84.15, "sub_desfechos": 78.5, "sub_acesso": 88.68, "sub_qualidade": 86.86, "icvs_quintil": 5, "cluster": 3}, "1301506": {"codmunicipio": "1301506", "nome": "Envira", "uf": "AM", "regiao": "Norte", "lat": -3.6491, "lon": -63.5347, "populacao": 16510, "icvs": 73.78, "sub_desfechos": 59.25, "sub_acesso": 82.62, "sub_qualidade": 84.64, "icvs_quintil": 5, "cluster": 3}, "1301605": {"codmunicipio": "1301605", "nome": "Fonte Boa", "uf": "AM", "regiao": "Norte", "lat": -3.1989, "lon": -62.3493, "populacao": 23621, "icvs": 68.75, "sub_desfechos": 72.8, "sub_acesso": 60.99, "sub_qualidade": 73.14, "icvs_quintil": 5, "cluster": 4}, "1301654": {"codmunicipio": "1301654", "nome": "Guajará", "uf": "AM", "regiao": "Norte", "lat": -5.0388, "lon": -63.8651, "populacao": 12054, "icvs": 44.49, "sub_desfechos": 31.39, "sub_acesso": 55.14, "sub_qualidade": 50.55, "icvs_quintil": 3, "cluster": 3}, "1301704": {"codmunicipio": "1301704", "nome": "Humaitá", "uf": "AM", "regiao": "Norte", "lat": -6.3224, "lon": -63.2223, "populacao": 26483, "icvs": 78.35, "sub_desfechos": 77.03, "sub_acesso": 80.11, "sub_qualidade": 78.01, "icvs_quintil": 5, "cluster": 4}, "1301803": {"codmunicipio": "1301803", "nome": "Ipixuna", "uf": "AM", "regiao": "Norte", "lat": -1.8821, "lon": -67.502, "populacao": 4349, "icvs": 75.47, "sub_desfechos": 70.51, "sub_acesso": 75.11, "sub_qualidade": 83.91, "icvs_quintil": 5, "cluster": 3}, "1301852": {"codmunicipio": "1301852", "nome": "Iranduba", "uf": "AM", "regiao": "Norte", "lat": -1.2218, "lon": -68.6489, "populacao": 7750, "icvs": 43.33, "sub_desfechos": 45.09, "sub_acesso": 47.21, "sub_qualidade": 35.09, "icvs_quintil": 3, "cluster": 3}, "1301902": {"codmunicipio": "1301902", "nome": "Itacoatiara", "uf": "AM", "regiao": "Norte", "lat": -5.4245, "lon": -65.7995, "populacao": 7178, "icvs": 41.73, "sub_desfechos": 28.97, "sub_acesso": 60.91, "sub_qualidade": 35.28, "icvs_quintil": 3, "cluster": 3}, "1301951": {"codmunicipio": "1301951", "nome": "Itamarati", "uf": "AM", "regiao": "Norte", "lat": -3.8049, "lon": -64.9286, "populacao": 5241, "icvs": 63.98, "sub_desfechos": 58.59, "sub_acesso": 69.88, "sub_qualidade": 64.34, "icvs_quintil": 5, "cluster": 3}, "1302009": {"codmunicipio": "1302009", "nome": "Itapiranga", "uf": "AM", "regiao": "Norte", "lat": -4.213, "lon": -64.4885, "populacao": 13888, "icvs": 52.9, "sub_desfechos": 66.01, "sub_acesso": 40.7, "sub_qualidade": 49.03, "icvs_quintil": 4, "cluster": 3}, "1302108": {"codmunicipio": "1302108", "nome": "Japurá", "uf": "AM", "regiao": "Norte", "lat": -3.7222, "lon": -65.3924, "populacao": 9090, "icvs": 54.4, "sub_desfechos": 47.65, "sub_acesso": 61.79, "sub_qualidade": 54.86, "icvs_quintil": 4, "cluster": 3}, "1302207": {"codmunicipio": "1302207", "nome": "Juruá", "uf": "AM", "regiao": "Norte", "lat": -1.3489, "lon": -64.6623, "populacao": 3724, "icvs": 92.01, "sub_desfechos": 100, "sub_acesso": 84.1, "sub_qualidade": 90.28, "icvs_quintil": 5, "cluster": 3}, "1302306": {"codmunicipio": "1302306", "nome": "Jutaí", "uf": "AM", "regiao": "Norte", "lat": -2.078, "lon": -64.554, "populacao": 6210, "icvs": 58.47, "sub_desfechos": 64.33, "sub_acesso": 47.01, "sub_qualidade": 65.15, "icvs_quintil": 4, "cluster": 3}, "1302405": {"codmunicipio": "1302405", "nome": "Lábrea", "uf": "AM", "regiao": "Norte", "lat": -3.3668, "lon": -66.8531, "populacao": 328563, "icvs": 59.58, "sub_desfechos": 57.1, "sub_acesso": 65.99, "sub_qualidade": 54.58, "icvs_quintil": 4, "cluster": 1}, "1302504": {"codmunicipio": "1302504", "nome": "Manacapuru", "uf": "AM", "regiao": "Norte", "lat": -3.4789, "lon": -64.3559, "populacao": 61616, "icvs": 53.81, "sub_desfechos": 51.91, "sub_acesso": 62.31, "sub_qualidade": 44.96, "icvs_quintil": 4, "cluster": 5}, "1302553": {"codmunicipio": "1302553", "nome": "Manaquiri", "uf": "AM", "regiao": "Norte", "lat": -4.9246, "lon": -67.5591, "populacao": 1462, "icvs": 58.34, "sub_desfechos": 69.91, "sub_acesso": 52.2, "sub_qualidade": 48.45, "icvs_quintil": 4, "cluster": 3}, "1302603": {"codmunicipio": "1302603", "nome": "Manaus", "uf": "AM", "regiao": "Norte", "lat": -4.438, "lon": -65.5938, "populacao": 87323, "icvs": 60.85, "sub_desfechos": 48.05, "sub_acesso": 62.09, "sub_qualidade": 79.61, "icvs_quintil": 4, "cluster": 5}, "1302702": {"codmunicipio": "1302702", "nome": "Manicoré", "uf": "AM", "regiao": "Norte", "lat": -2.4572, "lon": -62.9602, "populacao": 26694, "icvs": 64.53, "sub_desfechos": 63.29, "sub_acesso": 57.75, "sub_qualidade": 75.99, "icvs_quintil": 5, "cluster": 4}, "1302801": {"codmunicipio": "1302801", "nome": "Maraã", "uf": "AM", "regiao": "Norte", "lat": -1.8336, "lon": -69.3209, "populacao": 4518, "icvs": 56.64, "sub_desfechos": 50.96, "sub_acesso": 65.26, "sub_qualidade": 53.64, "icvs_quintil": 4, "cluster": 3}, "1302900": {"codmunicipio": "1302900", "nome": "Maués", "uf": "AM", "regiao": "Norte", "lat": -2.0139, "lon": -65.5701, "populacao": 24217, "icvs": 72.44, "sub_desfechos": 72.59, "sub_acesso": 70.24, "sub_qualidade": 75.28, "icvs_quintil": 5, "cluster": 4}, "1303007": {"codmunicipio": "1303007", "nome": "Nhamundá", "uf": "AM", "regiao": "Norte", "lat": -4.2382, "lon": -67.4548, "populacao": 91169, "icvs": 75.22, "sub_desfechos": 80.1, "sub_acesso": 76.05, "sub_qualidade": 66.26, "icvs_quintil": 5, "cluster": 5}, "1303106": {"codmunicipio": "1303106", "nome": "Nova Olinda do Norte", "uf": "AM", "regiao": "Norte", "lat": -0.3487, "lon": -61.5357, "populacao": 36574, "icvs": 84.56, "sub_desfechos": 81.23, "sub_acesso": 90.55, "sub_qualidade": 81.49, "icvs_quintil": 5, "cluster": 4}, "1303205": {"codmunicipio": "1303205", "nome": "Novo Airão", "uf": "AM", "regiao": "Norte", "lat": -4.7696, "lon": -64.3466, "populacao": 15282, "icvs": 37.06, "sub_desfechos": 41.2, "sub_acesso": 24.49, "sub_qualidade": 48.04, "icvs_quintil": 2, "cluster": 3}, "1303304": {"codmunicipio": "1303304", "nome": "Novo Aripuanã", "uf": "AM", "regiao": "Norte", "lat": -1.837, "lon": -67.8123, "populacao": 76519, "icvs": 55.17, "sub_desfechos": 55.23, "sub_acesso": 52.44, "sub_qualidade": 58.9, "icvs_quintil": 4, "cluster": 5}, "1303403": {"codmunicipio": "1303403", "nome": "Parintins", "uf": "AM", "regiao": "Norte", "lat": -3.8951, "lon": -66.9561, "populacao": 1271, "icvs": 76.34, "sub_desfechos": 81.03, "sub_acesso": 69.04, "sub_qualidade": 79.06, "icvs_quintil": 5, "cluster": 3}, "1303502": {"codmunicipio": "1303502", "nome": "Pauini", "uf": "AM", "regiao": "Norte", "lat": -5.1449, "lon": -65.5915, "populacao": 9161, "icvs": 26.71, "sub_desfechos": 19.68, "sub_acesso": 38.35, "sub_qualidade": 21.67, "icvs_quintil": 1, "cluster": 3}, "1303536": {"codmunicipio": "1303536", "nome": "Presidente Figueiredo", "uf": "AM", "regiao": "Norte", "lat": -3.808, "lon": -61.6067, "populacao": 42396, "icvs": 67.4, "sub_desfechos": 74.82, "sub_acesso": 60.66, "sub_qualidade": 64.99, "icvs_quintil": 5, "cluster": 4}, "1303569": {"codmunicipio": "1303569", "nome": "Rio Preto da Eva", "uf": "AM", "regiao": "Norte", "lat": -5.479, "lon": -64.5565, "populacao": 11606, "icvs": 68.71, "sub_desfechos": 64.43, "sub_acesso": 77.3, "sub_qualidade": 63.53, "icvs_quintil": 5, "cluster": 3}, "1303601": {"codmunicipio": "1303601", "nome": "Santa Isabel do Rio Negro", "uf": "AM", "regiao": "Norte", "lat": -2.9068, "lon": -66.0186, "populacao": 800, "icvs": 65.23, "sub_desfechos": 62.36, "sub_acesso": 69.95, "sub_qualidade": 63.2, "icvs_quintil": 5, "cluster": 3}, "1303700": {"codmunicipio": "1303700", "nome": "Santo Antônio do Içá", "uf": "AM", "regiao": "Norte", "lat": -5.1317, "lon": -61.9726, "populacao": 26584, "icvs": 63.94, "sub_desfechos": 72.65, "sub_acesso": 64.37, "sub_qualidade": 49.4, "icvs_quintil": 5, "cluster": 4}, "1303809": {"codmunicipio": "1303809", "nome": "São Gabriel da Cachoeira", "uf": "AM", "regiao": "Norte", "lat": 0.1708, "lon": -64.821, "populacao": 13610, "icvs": 86.15, "sub_desfechos": 88.51, "sub_acesso": 85.58, "sub_qualidade": 83.17, "icvs_quintil": 5, "cluster": 3}, "1303908": {"codmunicipio": "1303908", "nome": "São Paulo de Olivença", "uf": "AM", "regiao": "Norte", "lat": -4.258, "lon": -67.5152, "populacao": 13691, "icvs": 74.74, "sub_desfechos": 77.47, "sub_acesso": 68.79, "sub_qualidade": 78.71, "icvs_quintil": 5, "cluster": 3}, "1303957": {"codmunicipio": "1303957", "nome": "São Sebastião do Uatumã", "uf": "AM", "regiao": "Norte", "lat": -2.5846, "lon": -64.3968, "populacao": 26499, "icvs": 37.34, "sub_desfechos": 32.95, "sub_acesso": 41.35, "sub_qualidade": 38.73, "icvs_quintil": 2, "cluster": 4}, "1304005": {"codmunicipio": "1304005", "nome": "Silves", "uf": "AM", "regiao": "Norte", "lat": -4.9503, "lon": -66.0993, "populacao": 16757, "icvs": 59.94, "sub_desfechos": 52.27, "sub_acesso": 68.18, "sub_qualidade": 60.67, "icvs_quintil": 4, "cluster": 3}, "1304062": {"codmunicipio": "1304062", "nome": "Tabatinga", "uf": "AM", "regiao": "Norte", "lat": -3.5043, "lon": -66.7128, "populacao": 26597, "icvs": 65.2, "sub_desfechos": 61.53, "sub_acesso": 62.73, "sub_qualidade": 74.53, "icvs_quintil": 5, "cluster": 4}, "1304104": {"codmunicipio": "1304104", "nome": "Tapauá", "uf": "AM", "regiao": "Norte", "lat": -3.4767, "lon": -64.1872, "populacao": 7310, "icvs": 96.86, "sub_desfechos": 96.78, "sub_acesso": 100, "sub_qualidade": 92.61, "icvs_quintil": 5, "cluster": 3}, "1304203": {"codmunicipio": "1304203", "nome": "Tefé", "uf": "AM", "regiao": "Norte", "lat": -5.948, "lon": -65.7817, "populacao": 6559, "icvs": 74.49, "sub_desfechos": 68.01, "sub_acesso": 80.35, "sub_qualidade": 76.67, "icvs_quintil": 5, "cluster": 3}, "1304237": {"codmunicipio": "1304237", "nome": "Tonantins", "uf": "AM", "regiao": "Norte", "lat": -5.867, "lon": -64.8135, "populacao": 118163, "icvs": 70.57, "sub_desfechos": 62.95, "sub_acesso": 89.14, "sub_qualidade": 56.75, "icvs_quintil": 5, "cluster": 1}, "1304260": {"codmunicipio": "1304260", "nome": "Uarini", "uf": "AM", "regiao": "Norte", "lat": -3.6121, "lon": -64.2892, "populacao": 6638, "icvs": 46.75, "sub_desfechos": 42.0, "sub_acesso": 45.02, "sub_qualidade": 56.8, "icvs_quintil": 3, "cluster": 3}, "1304302": {"codmunicipio": "1304302", "nome": "Urucará", "uf": "AM", "regiao": "Norte", "lat": -3.3614, "lon": -64.8255, "populacao": 16525, "icvs": 83.22, "sub_desfechos": 92.12, "sub_acesso": 72.12, "sub_qualidade": 84.53, "icvs_quintil": 5, "cluster": 3}, "1304401": {"codmunicipio": "1304401", "nome": "Urucurituba", "uf": "AM", "regiao": "Norte", "lat": -1.5903, "lon": -65.4675, "populacao": 23883, "icvs": 63.29, "sub_desfechos": 63.88, "sub_acesso": 61.45, "sub_qualidade": 64.92, "icvs_quintil": 4, "cluster": 4}, "1400027": {"codmunicipio": "1400027", "nome": "Amajari", "uf": "RR", "regiao": "Norte", "lat": 3.1708, "lon": -62.8684, "populacao": 90874, "icvs": 54.25, "sub_desfechos": 57.24, "sub_acesso": 44.71, "sub_qualidade": 62.83, "icvs_quintil": 4, "cluster": 5}, "1400050": {"codmunicipio": "1400050", "nome": "Alto Alegre", "uf": "RR", "regiao": "Norte", "lat": 0.4033, "lon": -60.9593, "populacao": 85335, "icvs": 68.87, "sub_desfechos": 66.11, "sub_acesso": 72.7, "sub_qualidade": 67.94, "icvs_quintil": 5, "cluster": 5}, "1400100": {"codmunicipio": "1400100", "nome": "Boa Vista", "uf": "RR", "regiao": "Norte", "lat": 2.6545, "lon": -62.9677, "populacao": 1407, "icvs": 77.46, "sub_desfechos": 100, "sub_acesso": 65.78, "sub_qualidade": 57.77, "icvs_quintil": 5, "cluster": 3}, "1400159": {"codmunicipio": "1400159", "nome": "Bonfim", "uf": "RR", "regiao": "Norte", "lat": 2.7948, "lon": -60.9918, "populacao": 18063, "icvs": 57.37, "sub_desfechos": 75.59, "sub_acesso": 37.13, "sub_qualidade": 56.54, "icvs_quintil": 4, "cluster": 3}, "1400175": {"codmunicipio": "1400175", "nome": "Cantá", "uf": "RR", "regiao": "Norte", "lat": 2.7427, "lon": -61.3645, "populacao": 59791, "icvs": 29.41, "sub_desfechos": 41.46, "sub_acesso": 15.42, "sub_qualidade": 29.69, "icvs_quintil": 2, "cluster": 5}, "1400209": {"codmunicipio": "1400209", "nome": "Caracaraí", "uf": "RR", "regiao": "Norte", "lat": 2.2616, "lon": -62.5755, "populacao": 16323, "icvs": 48.11, "sub_desfechos": 48.77, "sub_acesso": 52.38, "sub_qualidade": 41.07, "icvs_quintil": 3, "cluster": 3}, "1400233": {"codmunicipio": "1400233", "nome": "Caroebe", "uf": "RR", "regiao": "Norte", "lat": -0.7948, "lon": -60.0726, "populacao": 28397, "icvs": 57.45, "sub_desfechos": 57.15, "sub_acesso": 59.12, "sub_qualidade": 55.58, "icvs_quintil": 4, "cluster": 4}, "1400282": {"codmunicipio": "1400282", "nome": "Iracema", "uf": "RR", "regiao": "Norte", "lat": 1.7633, "lon": -65.6927, "populacao": 6997, "icvs": 49.23, "sub_desfechos": 49.41, "sub_acesso": 47.35, "sub_qualidade": 51.56, "icvs_quintil": 3, "cluster": 3}, "1400308": {"codmunicipio": "1400308", "nome": "Mucajaí", "uf": "RR", "regiao": "Norte", "lat": 1.5222, "lon": -62.2199, "populacao": 19698, "icvs": 67.38, "sub_desfechos": 59.22, "sub_acesso": 84.92, "sub_qualidade": 55.87, "icvs_quintil": 5, "cluster": 3}, "1400407": {"codmunicipio": "1400407", "nome": "Normandia", "uf": "RR", "regiao": "Norte", "lat": 2.2629, "lon": -58.5288, "populacao": 32247, "icvs": 73.5, "sub_desfechos": 76.25, "sub_acesso": 67.93, "sub_qualidade": 76.89, "icvs_quintil": 5, "cluster": 4}, "1400456": {"codmunicipio": "1400456", "nome": "Pacaraima", "uf": "RR", "regiao": "Norte", "lat": 0.6848, "lon": -65.1034, "populacao": 72848, "icvs": 66.44, "sub_desfechos": 65.64, "sub_acesso": 66.99, "sub_qualidade": 66.97, "icvs_quintil": 5, "cluster": 5}, "1400472": {"codmunicipio": "1400472", "nome": "Rorainópolis", "uf": "RR", "regiao": "Norte", "lat": 0.1397, "lon": -64.8868, "populacao": 10693, "icvs": 93.21, "sub_desfechos": 92.54, "sub_acesso": 100, "sub_qualidade": 84.77, "icvs_quintil": 5, "cluster": 3}, "1400506": {"codmunicipio": "1400506", "nome": "São João da Baliza", "uf": "RR", "regiao": "Norte", "lat": 0.023, "lon": -64.4794, "populacao": 5555, "icvs": 68.23, "sub_desfechos": 67.0, "sub_acesso": 71.5, "sub_qualidade": 65.63, "icvs_quintil": 5, "cluster": 3}, "1400605": {"codmunicipio": "1400605", "nome": "São Luiz do Anauá", "uf": "RR", "regiao": "Norte", "lat": 1.9773, "lon": -63.666, "populacao": 9125, "icvs": 64.63, "sub_desfechos": 76.89, "sub_acesso": 49.81, "sub_qualidade": 65.78, "icvs_quintil": 5, "cluster": 3}, "1400704": {"codmunicipio": "1400704", "nome": "Uiramutã", "uf": "RR", "regiao": "Norte", "lat": 1.1155, "lon": -63.9174, "populacao": 92980, "icvs": 53.65, "sub_desfechos": 52.73, "sub_acesso": 52.19, "sub_qualidade": 57.19, "icvs_quintil": 4, "cluster": 5}, "1500107": {"codmunicipio": "1500107", "nome": "Abaetetuba", "uf": "PA", "regiao": "Norte", "lat": -4.4038, "lon": -52.4513, "populacao": 2829, "icvs": 65.49, "sub_desfechos": 68.57, "sub_acesso": 67.08, "sub_qualidade": 58.32, "icvs_quintil": 5, "cluster": 3}, "1500131": {"codmunicipio": "1500131", "nome": "Abel Figueiredo", "uf": "PA", "regiao": "Norte", "lat": -4.2898, "lon": -51.2522, "populacao": 76412, "icvs": 61.51, "sub_desfechos": 52.5, "sub_acesso": 62.83, "sub_qualidade": 74.08, "icvs_quintil": 4, "cluster": 5}, "1500206": {"codmunicipio": "1500206", "nome": "Acará", "uf": "PA", "regiao": "Norte", "lat": 1.8381, "lon": -54.6376, "populacao": 24375, "icvs": 56.41, "sub_desfechos": 55.87, "sub_acesso": 58.29, "sub_qualidade": 54.62, "icvs_quintil": 4, "cluster": 4}, "1500305": {"codmunicipio": "1500305", "nome": "Afuá", "uf": "PA", "regiao": "Norte", "lat": -1.3497, "lon": -51.7236, "populacao": 12601, "icvs": 44.47, "sub_desfechos": 47.5, "sub_acesso": 38.56, "sub_qualidade": 47.9, "icvs_quintil": 3, "cluster": 3}, "1500347": {"codmunicipio": "1500347", "nome": "Água Azul do Norte", "uf": "PA", "regiao": "Norte", "lat": -2.9696, "lon": -53.0533, "populacao": 24264, "icvs": 53.35, "sub_desfechos": 52.92, "sub_acesso": 47.34, "sub_qualidade": 62.44, "icvs_quintil": 4, "cluster": 4}, "1500404": {"codmunicipio": "1500404", "nome": "Alenquer", "uf": "PA", "regiao": "Norte", "lat": -4.4453, "lon": -52.4391, "populacao": 9379, "icvs": 71.51, "sub_desfechos": 81.98, "sub_acesso": 56.1, "sub_qualidade": 76.35, "icvs_quintil": 5, "cluster": 3}, "1500503": {"codmunicipio": "1500503", "nome": "Almeirim", "uf": "PA", "regiao": "Norte", "lat": -5.2149, "lon": -55.5965, "populacao": 4779, "icvs": 44.48, "sub_desfechos": 50.27, "sub_acesso": 41.83, "sub_qualidade": 38.94, "icvs_quintil": 3, "cluster": 3}, "1500602": {"codmunicipio": "1500602", "nome": "Altamira", "uf": "PA", "regiao": "Norte", "lat": -4.6497, "lon": -48.2665, "populacao": 62981, "icvs": 64.38, "sub_desfechos": 53.2, "sub_acesso": 77.85, "sub_qualidade": 63.4, "icvs_quintil": 5, "cluster": 5}, "1500701": {"codmunicipio": "1500701", "nome": "Anajás", "uf": "PA", "regiao": "Norte", "lat": -5.0414, "lon": -52.0419, "populacao": 9990, "icvs": 72.06, "sub_desfechos": 74.92, "sub_acesso": 70.9, "sub_qualidade": 69.11, "icvs_quintil": 5, "cluster": 3}, "1500800": {"codmunicipio": "1500800", "nome": "Ananindeua", "uf": "PA", "regiao": "Norte", "lat": -1.5998, "lon": -52.6766, "populacao": 17417, "icvs": 83.04, "sub_desfechos": 78.87, "sub_acesso": 80.58, "sub_qualidade": 93.16, "icvs_quintil": 5, "cluster": 3}, "1500859": {"codmunicipio": "1500859", "nome": "Anapu", "uf": "PA", "regiao": "Norte", "lat": -3.2467, "lon": -50.9036, "populacao": 61398, "icvs": 67.42, "sub_desfechos": 58.46, "sub_acesso": 80.04, "sub_qualidade": 64.07, "icvs_quintil": 5, "cluster": 5}, "1500909": {"codmunicipio": "1500909", "nome": "Augusto Corrêa", "uf": "PA", "regiao": "Norte", "lat": -3.7265, "lon": -53.692, "populacao": 60884, "icvs": 49.09, "sub_desfechos": 39.94, "sub_acesso": 46.53, "sub_qualidade": 67.32, "icvs_quintil": 3, "cluster": 5}, "1500958": {"codmunicipio": "1500958", "nome": "Aurora do Pará", "uf": "PA", "regiao": "Norte", "lat": -5.9387, "lon": -51.4237, "populacao": 20139, "icvs": 30.64, "sub_desfechos": 25.97, "sub_acesso": 36.37, "sub_qualidade": 30.08, "icvs_quintil": 2, "cluster": 4}, "1501006": {"codmunicipio": "1501006", "nome": "Aveiro", "uf": "PA", "regiao": "Norte", "lat": -2.7568, "lon": -50.5697, "populacao": 16889, "icvs": 46.53, "sub_desfechos": 31.78, "sub_acesso": 68.88, "sub_qualidade": 38.84, "icvs_quintil": 3, "cluster": 3}, "1501105": {"codmunicipio": "1501105", "nome": "Bagre", "uf": "PA", "regiao": "Norte", "lat": -0.4796, "lon": -52.6734, "populacao": 13709, "icvs": 78.15, "sub_desfechos": 85.84, "sub_acesso": 70.77, "sub_qualidade": 76.18, "icvs_quintil": 5, "cluster": 3}, "1501204": {"codmunicipio": "1501204", "nome": "Baião", "uf": "PA", "regiao": "Norte", "lat": -2.9204, "lon": -54.319, "populacao": 37187, "icvs": 69.41, "sub_desfechos": 63.94, "sub_acesso": 72.31, "sub_qualidade": 74.1, "icvs_quintil": 5, "cluster": 4}, "1501253": {"codmunicipio": "1501253", "nome": "Bannach", "uf": "PA", "regiao": "Norte", "lat": -4.2074, "lon": -49.1015, "populacao": 17801, "icvs": 85.0, "sub_desfechos": 88.08, "sub_acesso": 84.32, "sub_qualidade": 81.0, "icvs_quintil": 5, "cluster": 3}, "1501303": {"codmunicipio": "1501303", "nome": "Barcarena", "uf": "PA", "regiao": "Norte", "lat": -2.2139, "lon": -53.491, "populacao": 1672, "icvs": 79.02, "sub_desfechos": 78.08, "sub_acesso": 83.94, "sub_qualidade": 73.66, "icvs_quintil": 5, "cluster": 3}, "1501402": {"codmunicipio": "1501402", "nome": "Belém", "uf": "PA", "regiao": "Norte", "lat": -6.8018, "lon": -50.3409, "populacao": 16392, "icvs": 85.63, "sub_desfechos": 94.53, "sub_acesso": 78.17, "sub_qualidade": 81.82, "icvs_quintil": 5, "cluster": 3}, "1501451": {"codmunicipio": "1501451", "nome": "Belterra", "uf": "PA", "regiao": "Norte", "lat": -4.0488, "lon": -50.9963, "populacao": 14628, "icvs": 42.82, "sub_desfechos": 37.71, "sub_acesso": 37.72, "sub_qualidade": 58.16, "icvs_quintil": 3, "cluster": 3}, "1501501": {"codmunicipio": "1501501", "nome": "Benevides", "uf": "PA", "regiao": "Norte", "lat": -5.1298, "lon": -52.8776, "populacao": 18956, "icvs": 58.34, "sub_desfechos": 60.18, "sub_acesso": 56.3, "sub_qualidade": 58.25, "icvs_quintil": 4, "cluster": 3}, "1501576": {"codmunicipio": "1501576", "nome": "Bom Jesus do Tocantins", "uf": "PA", "regiao": "Norte", "lat": -5.0601, "lon": -52.0408, "populacao": 1802, "icvs": 49.28, "sub_desfechos": 55.96, "sub_acesso": 31.57, "sub_qualidade": 63.38, "icvs_quintil": 3, "cluster": 3}, "1501600": {"codmunicipio": "1501600", "nome": "Bonito", "uf": "PA", "regiao": "Norte", "lat": -4.7746, "lon": -53.0524, "populacao": 82849, "icvs": 77.33, "sub_desfechos": 76.48, "sub_acesso": 85.24, "sub_qualidade": 67.6, "icvs_quintil": 5, "cluster": 5}, "1501709": {"codmunicipio": "1501709", "nome": "Bragança", "uf": "PA", "regiao": "Norte", "lat": -3.2324, "lon": -54.1273, "populacao": 98291, "icvs": 62.7, "sub_desfechos": 55.23, "sub_acesso": 64.94, "sub_qualidade": 71.53, "icvs_quintil": 4, "cluster": 5}, "1501725": {"codmunicipio": "1501725", "nome": "Brasil Novo", "uf": "PA", "regiao": "Norte", "lat": -2.0485, "lon": -52.7331, "populacao": 2210, "icvs": 74.31, "sub_desfechos": 71.64, "sub_acesso": 89.56, "sub_qualidade": 57.23, "icvs_quintil": 5, "cluster": 3}, "1501758": {"codmunicipio": "1501758", "nome": "Brejo Grande do Araguaia", "uf": "PA", "regiao": "Norte", "lat": -6.345, "lon": -54.4307, "populacao": 59404, "icvs": 47.7, "sub_desfechos": 45.84, "sub_acesso": 46.53, "sub_qualidade": 52.33, "icvs_quintil": 3, "cluster": 5}, "1501782": {"codmunicipio": "1501782", "nome": "Breu Branco", "uf": "PA", "regiao": "Norte", "lat": -5.4255, "lon": -52.8029, "populacao": 32595, "icvs": 62.31, "sub_desfechos": 63.93, "sub_acesso": 63.64, "sub_qualidade": 57.87, "icvs_quintil": 4, "cluster": 4}, "1501808": {"codmunicipio": "1501808", "nome": "Breves", "uf": "PA", "regiao": "Norte", "lat": -4.2792, "lon": -53.3413, "populacao": 1951, "icvs": 8.15, "sub_desfechos": 20.38, "sub_acesso": 0, "sub_qualidade": 0, "icvs_quintil": 1, "cluster": 3}, "1501907": {"codmunicipio": "1501907", "nome": "Bujaru", "uf": "PA", "regiao": "Norte", "lat": -5.0071, "lon": -50.132, "populacao": 120172, "icvs": 91.85, "sub_desfechos": 94.08, "sub_acesso": 93.16, "sub_qualidade": 86.44, "icvs_quintil": 5, "cluster": 1}, "1501956": {"codmunicipio": "1501956", "nome": "Cachoeira do Piriá", "uf": "PA", "regiao": "Norte", "lat": -2.0086, "lon": -55.3331, "populacao": 10449, "icvs": 60.72, "sub_desfechos": 59.78, "sub_acesso": 63.8, "sub_qualidade": 57.92, "icvs_quintil": 4, "cluster": 3}, "1502004": {"codmunicipio": "1502004", "nome": "Cachoeira do Arari", "uf": "PA", "regiao": "Norte", "lat": -4.2845, "lon": -55.4598, "populacao": 36801, "icvs": 49.78, "sub_desfechos": 34.36, "sub_acesso": 60.64, "sub_qualidade": 59.26, "icvs_quintil": 3, "cluster": 4}, "1502103": {"codmunicipio": "1502103", "nome": "Cametá", "uf": "PA", "regiao": "Norte", "lat": -2.0579, "lon": -51.0007, "populacao": 59546, "icvs": 82.39, "sub_desfechos": 85.53, "sub_acesso": 83.89, "sub_qualidade": 75.28, "icvs_quintil": 5, "cluster": 5}, "1502152": {"codmunicipio": "1502152", "nome": "Canaã dos Carajás", "uf": "PA", "regiao": "Norte", "lat": -4.9077, "lon": -56.1334, "populacao": 7595, "icvs": 66.07, "sub_desfechos": 67.35, "sub_acesso": 67.23, "sub_qualidade": 62.41, "icvs_quintil": 5, "cluster": 3}, "1502202": {"codmunicipio": "1502202", "nome": "Capanema", "uf": "PA", "regiao": "Norte", "lat": -2.6636, "lon": -50.7245, "populacao": 28852, "icvs": 53.71, "sub_desfechos": 56.99, "sub_acesso": 49.94, "sub_qualidade": 53.73, "icvs_quintil": 4, "cluster": 4}, "1502301": {"codmunicipio": "1502301", "nome": "Capitão Poço", "uf": "PA", "regiao": "Norte", "lat": -3.4968, "lon": -51.8402, "populacao": 111667, "icvs": 30.57, "sub_desfechos": 38.92, "sub_acesso": 16.88, "sub_qualidade": 36.37, "icvs_quintil": 2, "cluster": 1}, "1502400": {"codmunicipio": "1502400", "nome": "Castanhal", "uf": "PA", "regiao": "Norte", "lat": -3.5992, "lon": -48.5104, "populacao": 3836, "icvs": 62.06, "sub_desfechos": 62.59, "sub_acesso": 59.35, "sub_qualidade": 64.99, "icvs_quintil": 4, "cluster": 3}, "1502509": {"codmunicipio": "1502509", "nome": "Chaves", "uf": "PA", "regiao": "Norte", "lat": -3.8188, "lon": -51.0983, "populacao": 4249, "icvs": 73.44, "sub_desfechos": 69.43, "sub_acesso": 82.97, "sub_qualidade": 66.52, "icvs_quintil": 5, "cluster": 3}, "1502608": {"codmunicipio": "1502608", "nome": "Colares", "uf": "PA", "regiao": "Norte", "lat": -4.918, "lon": -50.5034, "populacao": 24652, "icvs": 66.67, "sub_desfechos": 59.16, "sub_acesso": 83.48, "sub_qualidade": 55.16, "icvs_quintil": 5, "cluster": 4}, "1502707": {"codmunicipio": "1502707", "nome": "Conceição do Araguaia", "uf": "PA", "regiao": "Norte", "lat": -3.7918, "lon": -49.0024, "populacao": 5483, "icvs": 49.17, "sub_desfechos": 50.63, "sub_acesso": 37.38, "sub_qualidade": 63.34, "icvs_quintil": 3, "cluster": 3}, "1502756": {"codmunicipio": "1502756", "nome": "Concórdia do Pará", "uf": "PA", "regiao": "Norte", "lat": -4.8877, "lon": -52.3405, "populacao": 21248, "icvs": 58.59, "sub_desfechos": 56.6, "sub_acesso": 68.11, "sub_qualidade": 48.43, "icvs_quintil": 4, "cluster": 4}, "1502764": {"codmunicipio": "1502764", "nome": "Cumaru do Norte", "uf": "PA", "regiao": "Norte", "lat": -2.5365, "lon": -52.5491, "populacao": 5147, "icvs": 63.34, "sub_desfechos": 66.03, "sub_acesso": 62.96, "sub_qualidade": 59.54, "icvs_quintil": 4, "cluster": 3}, "1502772": {"codmunicipio": "1502772", "nome": "Curionópolis", "uf": "PA", "regiao": "Norte", "lat": -4.7629, "lon": -55.2156, "populacao": 13981, "icvs": 54.12, "sub_desfechos": 65.01, "sub_acesso": 48.32, "sub_qualidade": 44.83, "icvs_quintil": 4, "cluster": 3}, "1502806": {"codmunicipio": "1502806", "nome": "Curralinho", "uf": "PA", "regiao": "Norte", "lat": -4.3957, "lon": -49.3393, "populacao": 21080, "icvs": 46.1, "sub_desfechos": 66.93, "sub_acesso": 18.71, "sub_qualidade": 51.14, "icvs_quintil": 3, "cluster": 4}, "1502855": {"codmunicipio": "1502855", "nome": "Curuá", "uf": "PA", "regiao": "Norte", "lat": -5.1556, "lon": -54.3773, "populacao": 55665, "icvs": 64.93, "sub_desfechos": 71.98, "sub_acesso": 60.55, "sub_qualidade": 59.79, "icvs_quintil": 5, "cluster": 5}, "1502905": {"codmunicipio": "1502905", "nome": "Curuçá", "uf": "PA", "regiao": "Norte", "lat": -5.3368, "lon": -55.3719, "populacao": 230727, "icvs": 90.42, "sub_desfechos": 97.76, "sub_acesso": 84.38, "sub_qualidade": 87.13, "icvs_quintil": 5, "cluster": 1}, "1502939": {"codmunicipio": "1502939", "nome": "Dom Eliseu", "uf": "PA", "regiao": "Norte", "lat": -4.5717, "lon": -53.7106, "populacao": 11226, "icvs": 55.75, "sub_desfechos": 63.4, "sub_acesso": 50.83, "sub_qualidade": 50.4, "icvs_quintil": 4, "cluster": 3}, "1502954": {"codmunicipio": "1502954", "nome": "Eldorado do Carajás", "uf": "PA", "regiao": "Norte", "lat": -3.8621, "lon": -53.2576, "populacao": 2822, "icvs": 47.19, "sub_desfechos": 47.86, "sub_acesso": 40.14, "sub_qualidade": 55.98, "icvs_quintil": 3, "cluster": 3}, "1503002": {"codmunicipio": "1503002", "nome": "Faro", "uf": "PA", "regiao": "Norte", "lat": -3.4303, "lon": -51.6243, "populacao": 258149, "icvs": 60.84, "sub_desfechos": 69.68, "sub_acesso": 57.06, "sub_qualidade": 51.97, "icvs_quintil": 4, "cluster": 1}, "1503044": {"codmunicipio": "1503044", "nome": "Floresta do Araguaia", "uf": "PA", "regiao": "Norte", "lat": -7.0465, "lon": -53.2472, "populacao": 37474, "icvs": 37.55, "sub_desfechos": 37.25, "sub_acesso": 27.39, "sub_qualidade": 52.25, "icvs_quintil": 2, "cluster": 4}, "1503077": {"codmunicipio": "1503077", "nome": "Garrafão do Norte", "uf": "PA", "regiao": "Norte", "lat": -3.0121, "lon": -54.3209, "populacao": 180833, "icvs": 41.82, "sub_desfechos": 46.57, "sub_acesso": 35.84, "sub_qualidade": 42.57, "icvs_quintil": 3, "cluster": 1}, "1503093": {"codmunicipio": "1503093", "nome": "Goianésia do Pará", "uf": "PA", "regiao": "Norte", "lat": -4.1825, "lon": -51.7243, "populacao": 4006, "icvs": 62.1, "sub_desfechos": 67.0, "sub_acesso": 62.57, "sub_qualidade": 53.6, "icvs_quintil": 4, "cluster": 3}, "1503101": {"codmunicipio": "1503101", "nome": "Gurupá", "uf": "PA", "regiao": "Norte", "lat": -1.9367, "lon": -52.285, "populacao": 11285, "icvs": 56.11, "sub_desfechos": 59.73, "sub_acesso": 46.82, "sub_qualidade": 63.33, "icvs_quintil": 4, "cluster": 3}, "1503200": {"codmunicipio": "1503200", "nome": "Igarapé-Açu", "uf": "PA", "regiao": "Norte", "lat": -4.7221, "lon": -54.5874, "populacao": 5236, "icvs": 54.5, "sub_desfechos": 58.31, "sub_acesso": 49.26, "sub_qualidade": 55.73, "icvs_quintil": 4, "cluster": 3}, "1503309": {"codmunicipio": "1503309", "nome": "Igarapé-Miri", "uf": "PA", "regiao": "Norte", "lat": -0.7135, "lon": -51.8947, "populacao": 66671, "icvs": 39.7, "sub_desfechos": 43.92, "sub_acesso": 32.18, "sub_qualidade": 43.47, "icvs_quintil": 3, "cluster": 5}, "1503408": {"codmunicipio": "1503408", "nome": "Inhangapi", "uf": "PA", "regiao": "Norte", "lat": -3.693, "lon": -51.84, "populacao": 7537, "icvs": 54.22, "sub_desfechos": 52.69, "sub_acesso": 65.93, "sub_qualidade": 40.29, "icvs_quintil": 4, "cluster": 3}, "1503457": {"codmunicipio": "1503457", "nome": "Ipixuna do Pará", "uf": "PA", "regiao": "Norte", "lat": -1.474, "lon": -49.1302, "populacao": 6782, "icvs": 50.98, "sub_desfechos": 46.25, "sub_acesso": 58.27, "sub_qualidade": 48.34, "icvs_quintil": 4, "cluster": 3}, "1503507": {"codmunicipio": "1503507", "nome": "Irituia", "uf": "PA", "regiao": "Norte", "lat": -1.2224, "lon": -50.3235, "populacao": 3800, "icvs": 29.17, "sub_desfechos": 30.29, "sub_acesso": 25.66, "sub_qualidade": 32.28, "icvs_quintil": 2, "cluster": 3}, "1503606": {"codmunicipio": "1503606", "nome": "Itaituba", "uf": "PA", "regiao": "Norte", "lat": -4.9748, "lon": -55.085, "populacao": 72864, "icvs": 49.33, "sub_desfechos": 54.54, "sub_acesso": 28.65, "sub_qualidade": 69.97, "icvs_quintil": 3, "cluster": 5}, "1503705": {"codmunicipio": "1503705", "nome": "Itupiranga", "uf": "PA", "regiao": "Norte", "lat": -3.8322, "lon": -53.5217, "populacao": 12348, "icvs": 60.34, "sub_desfechos": 66.84, "sub_acesso": 64.47, "sub_qualidade": 44.14, "icvs_quintil": 4, "cluster": 3}, "1503754": {"codmunicipio": "1503754", "nome": "Jacareacanga", "uf": "PA", "regiao": "Norte", "lat": -5.3228, "lon": -52.3567, "populacao": 9292, "icvs": 43.4, "sub_desfechos": 37.38, "sub_acesso": 50.86, "sub_qualidade": 42.58, "icvs_quintil": 3, "cluster": 3}, "1503804": {"codmunicipio": "1503804", "nome": "Jacundá", "uf": "PA", "regiao": "Norte", "lat": -0.981, "lon": -53.5622, "populacao": 933871, "icvs": 52.23, "sub_desfechos": 46.07, "sub_acesso": 53.41, "sub_qualidade": 60.42, "icvs_quintil": 4, "cluster": 0}, "1503903": {"codmunicipio": "1503903", "nome": "Juruti", "uf": "PA", "regiao": "Norte", "lat": -4.7438, "lon": -51.0728, "populacao": 7247, "icvs": 67.91, "sub_desfechos": 68.95, "sub_acesso": 69.51, "sub_qualidade": 64.04, "icvs_quintil": 5, "cluster": 3}, "1504000": {"codmunicipio": "1504000", "nome": "Limoeiro do Ajuru", "uf": "PA", "regiao": "Norte", "lat": -2.8356, "lon": -54.0981, "populacao": 38216, "icvs": 29.83, "sub_desfechos": 26.61, "sub_acesso": 26.2, "sub_qualidade": 40.07, "icvs_quintil": 2, "cluster": 4}, "1504059": {"codmunicipio": "1504059", "nome": "Mãe do Rio", "uf": "PA", "regiao": "Norte", "lat": -4.0454, "lon": -52.6944, "populacao": 32738, "icvs": 69.19, "sub_desfechos": 67.72, "sub_acesso": 77.7, "sub_qualidade": 59.64, "icvs_quintil": 5, "cluster": 4}, "1504109": {"codmunicipio": "1504109", "nome": "Magalhães Barata", "uf": "PA", "regiao": "Norte", "lat": -2.4302, "lon": -50.8292, "populacao": 6952, "icvs": 52.55, "sub_desfechos": 51.47, "sub_acesso": 40.58, "sub_qualidade": 71.06, "icvs_quintil": 4, "cluster": 3}, "1504208": {"codmunicipio": "1504208", "nome": "Marabá", "uf": "PA", "regiao": "Norte", "lat": -2.8754, "lon": -53.6533, "populacao": 6470, "icvs": 59.4, "sub_desfechos": 72.53, "sub_acesso": 52.94, "sub_qualidade": 47.41, "icvs_quintil": 4, "cluster": 3}, "1504307": {"codmunicipio": "1504307", "nome": "Maracanã", "uf": "PA", "regiao": "Norte", "lat": -3.7938, "lon": -51.3653, "populacao": 21081, "icvs": 50.02, "sub_desfechos": 49.98, "sub_acesso": 44.41, "sub_qualidade": 57.94, "icvs_quintil": 3, "cluster": 4}, "1504406": {"codmunicipio": "1504406", "nome": "Marapanim", "uf": "PA", "regiao": "Norte", "lat": -1.1515, "lon": -52.1835, "populacao": 6754, "icvs": 57.29, "sub_desfechos": 51.2, "sub_acesso": 68.96, "sub_qualidade": 50.72, "icvs_quintil": 4, "cluster": 3}, "1504422": {"codmunicipio": "1504422", "nome": "Marituba", "uf": "PA", "regiao": "Norte", "lat": -3.5645, "lon": -51.9551, "populacao": 42864, "icvs": 63.17, "sub_desfechos": 76.36, "sub_acesso": 50.6, "sub_qualidade": 59.66, "icvs_quintil": 4, "cluster": 4}, "1504455": {"codmunicipio": "1504455", "nome": "Medicilândia", "uf": "PA", "regiao": "Norte", "lat": -3.8365, "lon": -54.5264, "populacao": 48611, "icvs": 67.98, "sub_desfechos": 65.64, "sub_acesso": 75.48, "sub_qualidade": 61.24, "icvs_quintil": 5, "cluster": 4}, "1504505": {"codmunicipio": "1504505", "nome": "Melgaço", "uf": "PA", "regiao": "Norte", "lat": -2.4149, "lon": -51.1314, "populacao": 16273, "icvs": 83.85, "sub_desfechos": 90.74, "sub_acesso": 83.27, "sub_qualidade": 73.64, "icvs_quintil": 5, "cluster": 3}, "1504604": {"codmunicipio": "1504604", "nome": "Mocajuba", "uf": "PA", "regiao": "Norte", "lat": -3.2721, "lon": -52.6229, "populacao": 13953, "icvs": 43.42, "sub_desfechos": 40.99, "sub_acesso": 42.97, "sub_qualidade": 47.93, "icvs_quintil": 3, "cluster": 3}, "1504703": {"codmunicipio": "1504703", "nome": "Moju", "uf": "PA", "regiao": "Norte", "lat": -4.4706, "lon": -54.4035, "populacao": 1656, "icvs": 92.41, "sub_desfechos": 91.06, "sub_acesso": 97.01, "sub_qualidade": 88.13, "icvs_quintil": 5, "cluster": 3}, "1504752": {"codmunicipio": "1504752", "nome": "Mojuí dos Campos", "uf": "PA", "regiao": "Norte", "lat": -2.688, "lon": -51.901, "populacao": 27512, "icvs": 79.63, "sub_desfechos": 77.47, "sub_acesso": 75.95, "sub_qualidade": 88.24, "icvs_quintil": 5, "cluster": 4}, "1504802": {"codmunicipio": "1504802", "nome": "Monte Alegre", "uf": "PA", "regiao": "Norte", "lat": -5.9967, "lon": -47.2978, "populacao": 16830, "icvs": 67.31, "sub_desfechos": 71.87, "sub_acesso": 67.88, "sub_qualidade": 59.23, "icvs_quintil": 5, "cluster": 3}, "1504901": {"codmunicipio": "1504901", "nome": "Muaná", "uf": "PA", "regiao": "Norte", "lat": -4.3306, "lon": -52.986, "populacao": 252106, "icvs": 56.1, "sub_desfechos": 51.43, "sub_acesso": 67.63, "sub_qualidade": 47.43, "icvs_quintil": 4, "cluster": 1}, "1504950": {"codmunicipio": "1504950", "nome": "Nova Esperança do Piriá", "uf": "PA", "regiao": "Norte", "lat": -5.2873, "lon": -54.9832, "populacao": 26768, "icvs": 59.7, "sub_desfechos": 58.25, "sub_acesso": 66.24, "sub_qualidade": 52.87, "icvs_quintil": 4, "cluster": 4}, "1504976": {"codmunicipio": "1504976", "nome": "Nova Ipixuna", "uf": "PA", "regiao": "Norte", "lat": -4.8208, "lon": -52.0914, "populacao": 8176, "icvs": 84.62, "sub_desfechos": 98.36, "sub_acesso": 68.78, "sub_qualidade": 84.79, "icvs_quintil": 5, "cluster": 3}, "1505007": {"codmunicipio": "1505007", "nome": "Nova Timboteua", "uf": "PA", "regiao": "Norte", "lat": -4.3693, "lon": -52.0747, "populacao": 9562, "icvs": 67.68, "sub_desfechos": 65.44, "sub_acesso": 66.25, "sub_qualidade": 73.27, "icvs_quintil": 5, "cluster": 3}, "1505031": {"codmunicipio": "1505031", "nome": "Novo Progresso", "uf": "PA", "regiao": "Norte", "lat": -4.3978, "lon": -51.7442, "populacao": 63738, "icvs": 84.77, "sub_desfechos": 87.49, "sub_acesso": 89.5, "sub_qualidade": 73.79, "icvs_quintil": 5, "cluster": 5}, "1505064": {"codmunicipio": "1505064", "nome": "Novo Repartimento", "uf": "PA", "regiao": "Norte", "lat": -5.439, "lon": -53.675, "populacao": 10059, "icvs": 41.51, "sub_desfechos": 26.93, "sub_acesso": 58.74, "sub_qualidade": 40.73, "icvs_quintil": 3, "cluster": 3}, "1505106": {"codmunicipio": "1505106", "nome": "Óbidos", "uf": "PA", "regiao": "Norte", "lat": -5.1348, "lon": -50.3613, "populacao": 20632, "icvs": 69.85, "sub_desfechos": 59.36, "sub_acesso": 79.26, "sub_qualidade": 73.45, "icvs_quintil": 5, "cluster": 4}, "1505205": {"codmunicipio": "1505205", "nome": "Oeiras do Pará", "uf": "PA", "regiao": "Norte", "lat": -4.7056, "lon": -53.0655, "populacao": 22736, "icvs": 70.89, "sub_desfechos": 78.42, "sub_acesso": 65.03, "sub_qualidade": 67.05, "icvs_quintil": 5, "cluster": 4}, "1505304": {"codmunicipio": "1505304", "nome": "Oriximiná", "uf": "PA", "regiao": "Norte", "lat": -1.5363, "lon": -50.2932, "populacao": 4756, "icvs": 64.77, "sub_desfechos": 69.78, "sub_acesso": 64.04, "sub_qualidade": 57.79, "icvs_quintil": 5, "cluster": 3}, "1505403": {"codmunicipio": "1505403", "nome": "Ourém", "uf": "PA", "regiao": "Norte", "lat": -6.2221, "lon": -53.9463, "populacao": 81812, "icvs": 69.27, "sub_desfechos": 69.4, "sub_acesso": 73.87, "sub_qualidade": 62.62, "icvs_quintil": 5, "cluster": 5}, "1505437": {"codmunicipio": "1505437", "nome": "Ourilândia do Norte", "uf": "PA", "regiao": "Norte", "lat": -4.006, "lon": -52.8044, "populacao": 8363, "icvs": 76.24, "sub_desfechos": 79.64, "sub_acesso": 74.68, "sub_qualidade": 72.97, "icvs_quintil": 5, "cluster": 3}, "1505486": {"codmunicipio": "1505486", "nome": "Pacajá", "uf": "PA", "regiao": "Norte", "lat": -4.1677, "lon": -53.9597, "populacao": 86812, "icvs": 59.86, "sub_desfechos": 59.44, "sub_acesso": 57.14, "sub_qualidade": 64.35, "icvs_quintil": 4, "cluster": 5}, "1505494": {"codmunicipio": "1505494", "nome": "Palestina do Pará", "uf": "PA", "regiao": "Norte", "lat": -4.4637, "lon": -51.8987, "populacao": 19903, "icvs": 80.22, "sub_desfechos": 66.93, "sub_acesso": 95.35, "sub_qualidade": 80.31, "icvs_quintil": 5, "cluster": 3}, "1505502": {"codmunicipio": "1505502", "nome": "Paragominas", "uf": "PA", "regiao": "Norte", "lat": -3.8155, "lon": -53.7325, "populacao": 11677, "icvs": 64.57, "sub_desfechos": 62.4, "sub_acesso": 70.69, "sub_qualidade": 59.47, "icvs_quintil": 5, "cluster": 3}, "1505536": {"codmunicipio": "1505536", "nome": "Parauapebas", "uf": "PA", "regiao": "Norte", "lat": -5.4327, "lon": -50.3823, "populacao": 56038, "icvs": 56.43, "sub_desfechos": 53.07, "sub_acesso": 55.8, "sub_qualidade": 62.69, "icvs_quintil": 4, "cluster": 5}, "1505551": {"codmunicipio": "1505551", "nome": "Pau D'Arco", "uf": "PA", "regiao": "Norte", "lat": -3.3655, "lon": -52.1789, "populacao": 2369, "icvs": 78.78, "sub_desfechos": 68.97, "sub_acesso": 93.78, "sub_qualidade": 73.48, "icvs_quintil": 5, "cluster": 3}, "1505601": {"codmunicipio": "1505601", "nome": "Peixe-Boi", "uf": "PA", "regiao": "Norte", "lat": -4.3396, "lon": -53.754, "populacao": 28680, "icvs": 56.41, "sub_desfechos": 55.74, "sub_acesso": 58.83, "sub_qualidade": 54.07, "icvs_quintil": 4, "cluster": 4}, "1505635": {"codmunicipio": "1505635", "nome": "Piçarra", "uf": "PA", "regiao": "Norte", "lat": -4.9097, "lon": -51.9679, "populacao": 27120, "icvs": 50.23, "sub_desfechos": 42.87, "sub_acesso": 48.09, "sub_qualidade": 64.99, "icvs_quintil": 3, "cluster": 4}, "1505650": {"codmunicipio": "1505650", "nome": "Placas", "uf": "PA", "regiao": "Norte", "lat": -4.8974, "lon": -51.8538, "populacao": 30685, "icvs": 36.63, "sub_desfechos": 29.37, "sub_acesso": 41.25, "sub_qualidade": 41.78, "icvs_quintil": 2, "cluster": 4}, "1505700": {"codmunicipio": "1505700", "nome": "Ponta de Pedras", "uf": "PA", "regiao": "Norte", "lat": -4.0175, "lon": -52.9561, "populacao": 8757, "icvs": 74.36, "sub_desfechos": 78.58, "sub_acesso": 68.77, "sub_qualidade": 75.41, "icvs_quintil": 5, "cluster": 3}, "1505809": {"codmunicipio": "1505809", "nome": "Portel", "uf": "PA", "regiao": "Norte", "lat": -2.521, "lon": -52.4064, "populacao": 7531, "icvs": 58.46, "sub_desfechos": 58.07, "sub_acesso": 62.14, "sub_qualidade": 53.91, "icvs_quintil": 4, "cluster": 3}, "1505908": {"codmunicipio": "1505908", "nome": "Porto de Moz", "uf": "PA", "regiao": "Norte", "lat": -3.8364, "lon": -50.8757, "populacao": 5108, "icvs": 45.06, "sub_desfechos": 32.71, "sub_acesso": 51.86, "sub_qualidade": 55.32, "icvs_quintil": 3, "cluster": 3}, "1506005": {"codmunicipio": "1506005", "nome": "Prainha", "uf": "PA", "regiao": "Norte", "lat": -4.2971, "lon": -54.5109, "populacao": 21620, "icvs": 57.48, "sub_desfechos": 59.8, "sub_acesso": 50.0, "sub_qualidade": 64.24, "icvs_quintil": 4, "cluster": 4}, "1506104": {"codmunicipio": "1506104", "nome": "Primavera", "uf": "PA", "regiao": "Norte", "lat": -4.1827, "lon": -54.2916, "populacao": 2440, "icvs": 59.48, "sub_desfechos": 55.02, "sub_acesso": 56.39, "sub_qualidade": 70.95, "icvs_quintil": 4, "cluster": 3}, "1506112": {"codmunicipio": "1506112", "nome": "Quatipuru", "uf": "PA", "regiao": "Norte", "lat": -5.8781, "lon": -54.7781, "populacao": 38292, "icvs": 70.47, "sub_desfechos": 77.45, "sub_acesso": 68.12, "sub_qualidade": 62.59, "icvs_quintil": 5, "cluster": 4}, "1506138": {"codmunicipio": "1506138", "nome": "Redenção", "uf": "PA", "regiao": "Norte", "lat": -5.34, "lon": -53.642, "populacao": 10989, "icvs": 37.58, "sub_desfechos": 48.82, "sub_acesso": 19.85, "sub_qualidade": 44.41, "icvs_quintil": 2, "cluster": 3}, "1506161": {"codmunicipio": "1506161", "nome": "Rio Maria", "uf": "PA", "regiao": "Norte", "lat": -4.5099, "lon": -51.1094, "populacao": 3715, "icvs": 47.66, "sub_desfechos": 51.23, "sub_acesso": 44.22, "sub_qualidade": 46.78, "icvs_quintil": 3, "cluster": 3}, "1506187": {"codmunicipio": "1506187", "nome": "Rondon do Pará", "uf": "PA", "regiao": "Norte", "lat": -2.4389, "lon": -51.0682, "populacao": 54186, "icvs": 65.9, "sub_desfechos": 61.63, "sub_acesso": 69.02, "sub_qualidade": 68.38, "icvs_quintil": 5, "cluster": 5}, "1506195": {"codmunicipio": "1506195", "nome": "Rurópolis", "uf": "PA", "regiao": "Norte", "lat": -4.1828, "lon": -55.7742, "populacao": 35065, "icvs": 65.96, "sub_desfechos": 70.46, "sub_acesso": 61.23, "sub_qualidade": 65.4, "icvs_quintil": 5, "cluster": 4}, "1506203": {"codmunicipio": "1506203", "nome": "Salinópolis", "uf": "PA", "regiao": "Norte", "lat": -3.1877, "lon": -51.5305, "populacao": 36132, "icvs": 45.17, "sub_desfechos": 48.01, "sub_acesso": 48.88, "sub_qualidade": 35.44, "icvs_quintil": 3, "cluster": 4}, "1506302": {"codmunicipio": "1506302", "nome": "Salvaterra", "uf": "PA", "regiao": "Norte", "lat": -4.314, "lon": -53.4117, "populacao": 45530, "icvs": 70.02, "sub_desfechos": 70.57, "sub_acesso": 65.26, "sub_qualidade": 75.78, "icvs_quintil": 5, "cluster": 4}, "1506351": {"codmunicipio": "1506351", "nome": "Santa Bárbara do Pará", "uf": "PA", "regiao": "Norte", "lat": -3.7192, "lon": -55.5193, "populacao": 3747, "icvs": 57.99, "sub_desfechos": 58.61, "sub_acesso": 57.53, "sub_qualidade": 57.62, "icvs_quintil": 4, "cluster": 3}, "1506401": {"codmunicipio": "1506401", "nome": "Santa Cruz do Arari", "uf": "PA", "regiao": "Norte", "lat": -5.748, "lon": -53.4879, "populacao": 99123, "icvs": 42.33, "sub_desfechos": 32.55, "sub_acesso": 50.98, "sub_qualidade": 45.87, "icvs_quintil": 3, "cluster": 5}, "1506500": {"codmunicipio": "1506500", "nome": "Santa Izabel do Pará", "uf": "PA", "regiao": "Norte", "lat": -4.3883, "lon": -53.2182, "populacao": 3048, "icvs": 30.28, "sub_desfechos": 25.7, "sub_acesso": 47.97, "sub_qualidade": 12.82, "icvs_quintil": 2, "cluster": 3}, "1506559": {"codmunicipio": "1506559", "nome": "Santa Luzia do Pará", "uf": "PA", "regiao": "Norte", "lat": -4.1817, "lon": -51.1162, "populacao": 2347, "icvs": 69.59, "sub_desfechos": 61.44, "sub_acesso": 81.49, "sub_qualidade": 65.98, "icvs_quintil": 5, "cluster": 3}, "1506583": {"codmunicipio": "1506583", "nome": "Santa Maria das Barreiras", "uf": "PA", "regiao": "Norte", "lat": -4.3995, "lon": -50.6465, "populacao": 100271, "icvs": 52.59, "sub_desfechos": 54.34, "sub_acesso": 46.49, "sub_qualidade": 58.34, "icvs_quintil": 4, "cluster": 1}, "1506609": {"codmunicipio": "1506609", "nome": "Santa Maria do Pará", "uf": "PA", "regiao": "Norte", "lat": -5.4603, "lon": -52.5691, "populacao": 25665, "icvs": 50.29, "sub_desfechos": 51.22, "sub_acesso": 32.87, "sub_qualidade": 73.2, "icvs_quintil": 3, "cluster": 4}, "1506708": {"codmunicipio": "1506708", "nome": "Santana do Araguaia", "uf": "PA", "regiao": "Norte", "lat": -2.489, "lon": -53.6773, "populacao": 93685, "icvs": 65.58, "sub_desfechos": 60.87, "sub_acesso": 72.87, "sub_qualidade": 62.92, "icvs_quintil": 5, "cluster": 5}, "1506807": {"codmunicipio": "1506807", "nome": "Santarém", "uf": "PA", "regiao": "Norte", "lat": -4.5305, "lon": -50.6378, "populacao": 4854, "icvs": 83.59, "sub_desfechos": 83.22, "sub_acesso": 81.05, "sub_qualidade": 87.71, "icvs_quintil": 5, "cluster": 3}, "1506906": {"codmunicipio": "1506906", "nome": "Santarém Novo", "uf": "PA", "regiao": "Norte", "lat": -4.7129, "lon": -52.5117, "populacao": 5956, "icvs": 55.19, "sub_desfechos": 56.28, "sub_acesso": 49.97, "sub_qualidade": 60.73, "icvs_quintil": 4, "cluster": 3}, "1507003": {"codmunicipio": "1507003", "nome": "Santo Antônio do Tauá", "uf": "PA", "regiao": "Norte", "lat": -5.4839, "lon": -51.6667, "populacao": 4893, "icvs": 83.7, "sub_desfechos": 81.28, "sub_acesso": 86.76, "sub_qualidade": 83.26, "icvs_quintil": 5, "cluster": 3}, "1507102": {"codmunicipio": "1507102", "nome": "São Caetano de Odivelas", "uf": "PA", "regiao": "Norte", "lat": -4.1056, "lon": -50.6739, "populacao": 6557, "icvs": 78.68, "sub_desfechos": 76.73, "sub_acesso": 78.64, "sub_qualidade": 81.85, "icvs_quintil": 5, "cluster": 3}, "1507151": {"codmunicipio": "1507151", "nome": "São Domingos do Araguaia", "uf": "PA", "regiao": "Norte", "lat": -3.2616, "lon": -55.0001, "populacao": 25053, "icvs": 92.14, "sub_desfechos": 89.12, "sub_acesso": 92.27, "sub_qualidade": 96.78, "icvs_quintil": 5, "cluster": 4}, "1507201": {"codmunicipio": "1507201", "nome": "São Domingos do Capim", "uf": "PA", "regiao": "Norte", "lat": -4.1503, "lon": -55.0759, "populacao": 6592, "icvs": 63.35, "sub_desfechos": 63.01, "sub_acesso": 72.62, "sub_qualidade": 50.9, "icvs_quintil": 4, "cluster": 3}, "1507300": {"codmunicipio": "1507300", "nome": "São Félix do Xingu", "uf": "PA", "regiao": "Norte", "lat": -2.9125, "lon": -51.1836, "populacao": 8660, "icvs": 59.05, "sub_desfechos": 59.3, "sub_acesso": 65.62, "sub_qualidade": 49.45, "icvs_quintil": 4, "cluster": 3}, "1507409": {"codmunicipio": "1507409", "nome": "São Francisco do Pará", "uf": "PA", "regiao": "Norte", "lat": -2.5956, "lon": -53.0684, "populacao": 4434, "icvs": 25.01, "sub_desfechos": 20.57, "sub_acesso": 24.38, "sub_qualidade": 32.98, "icvs_quintil": 1, "cluster": 3}, "1507458": {"codmunicipio": "1507458", "nome": "São Geraldo do Araguaia", "uf": "PA", "regiao": "Norte", "lat": -2.9262, "lon": -54.9523, "populacao": 200431, "icvs": 51.89, "sub_desfechos": 60.62, "sub_acesso": 43.25, "sub_qualidade": 50.04, "icvs_quintil": 4, "cluster": 1}, "1507466": {"codmunicipio": "1507466", "nome": "São João da Ponta", "uf": "PA", "regiao": "Norte", "lat": -4.5139, "lon": -54.502, "populacao": 25264, "icvs": 47.02, "sub_desfechos": 53.06, "sub_acesso": 32.58, "sub_qualidade": 57.58, "icvs_quintil": 3, "cluster": 4}, "1507474": {"codmunicipio": "1507474", "nome": "São João de Pirabas", "uf": "PA", "regiao": "Norte", "lat": -4.71, "lon": -51.1763, "populacao": 6490, "icvs": 90.33, "sub_desfechos": 93.77, "sub_acesso": 100, "sub_qualidade": 71.26, "icvs_quintil": 5, "cluster": 3}, "1507508": {"codmunicipio": "1507508", "nome": "São João do Araguaia", "uf": "PA", "regiao": "Norte", "lat": -2.1515, "lon": -53.1509, "populacao": 7809, "icvs": 77.32, "sub_desfechos": 66.99, "sub_acesso": 84.17, "sub_qualidade": 84.26, "icvs_quintil": 5, "cluster": 3}, "1507607": {"codmunicipio": "1507607", "nome": "São Miguel do Guamá", "uf": "PA", "regiao": "Norte", "lat": -1.2299, "lon": -50.8617, "populacao": 3572, "icvs": 70.42, "sub_desfechos": 66.7, "sub_acesso": 65.31, "sub_qualidade": 83.53, "icvs_quintil": 5, "cluster": 3}, "1507706": {"codmunicipio": "1507706", "nome": "São Sebastião da Boa Vista", "uf": "PA", "regiao": "Norte", "lat": -3.7087, "lon": -53.4291, "populacao": 11079, "icvs": 59.67, "sub_desfechos": 59.64, "sub_acesso": 53.72, "sub_qualidade": 68.03, "icvs_quintil": 4, "cluster": 3}, "1507755": {"codmunicipio": "1507755", "nome": "Sapucaia", "uf": "PA", "regiao": "Norte", "lat": -2.53, "lon": -55.176, "populacao": 32151, "icvs": 62.02, "sub_desfechos": 66.98, "sub_acesso": 55.05, "sub_qualidade": 63.85, "icvs_quintil": 4, "cluster": 4}, "1507805": {"codmunicipio": "1507805", "nome": "Senador José Porfírio", "uf": "PA", "regiao": "Norte", "lat": -5.2162, "lon": -51.7733, "populacao": 24148, "icvs": 51.67, "sub_desfechos": 59.68, "sub_acesso": 26.4, "sub_qualidade": 74.23, "icvs_quintil": 4, "cluster": 4}, "1507904": {"codmunicipio": "1507904", "nome": "Soure", "uf": "PA", "regiao": "Norte", "lat": -4.9437, "lon": -51.9737, "populacao": 37958, "icvs": 78.65, "sub_desfechos": 74.44, "sub_acesso": 88.18, "sub_qualidade": 72.04, "icvs_quintil": 5, "cluster": 4}, "1507953": {"codmunicipio": "1507953", "nome": "Tailândia", "uf": "PA", "regiao": "Norte", "lat": -5.0515, "lon": -52.8085, "populacao": 49629, "icvs": 64.39, "sub_desfechos": 60.83, "sub_acesso": 75.7, "sub_qualidade": 54.24, "icvs_quintil": 5, "cluster": 4}, "1507961": {"codmunicipio": "1507961", "nome": "Terra Alta", "uf": "PA", "regiao": "Norte", "lat": -3.0578, "lon": -53.9632, "populacao": 13439, "icvs": 35.58, "sub_desfechos": 38.68, "sub_acesso": 36.79, "sub_qualidade": 28.93, "icvs_quintil": 2, "cluster": 3}, "1507979": {"codmunicipio": "1507979", "nome": "Terra Santa", "uf": "PA", "regiao": "Norte", "lat": -5.1436, "lon": -50.9903, "populacao": 30810, "icvs": 53.57, "sub_desfechos": 43.72, "sub_acesso": 53.62, "sub_qualidade": 69.28, "icvs_quintil": 4, "cluster": 4}, "1508001": {"codmunicipio": "1508001", "nome": "Tomé-Açu", "uf": "PA", "regiao": "Norte", "lat": -3.79, "lon": -49.9029, "populacao": 84519, "icvs": 51.8, "sub_desfechos": 56.69, "sub_acesso": 53.51, "sub_qualidade": 41.59, "icvs_quintil": 4, "cluster": 5}, "1508035": {"codmunicipio": "1508035", "nome": "Tracuateua", "uf": "PA", "regiao": "Norte", "lat": -1.4711, "lon": -50.3883, "populacao": 41232, "icvs": 37.1, "sub_desfechos": 42.69, "sub_acesso": 36.26, "sub_qualidade": 29.32, "icvs_quintil": 2, "cluster": 4}, "1508050": {"codmunicipio": "1508050", "nome": "Trairão", "uf": "PA", "regiao": "Norte", "lat": -3.6914, "lon": -53.9118, "populacao": 1357, "icvs": 68.36, "sub_desfechos": 78.48, "sub_acesso": 56.01, "sub_qualidade": 69.46, "icvs_quintil": 5, "cluster": 3}, "1508084": {"codmunicipio": "1508084", "nome": "Tucumã", "uf": "PA", "regiao": "Norte", "lat": -3.5028, "lon": -50.5387, "populacao": 10912, "icvs": 63.08, "sub_desfechos": 68.75, "sub_acesso": 56.78, "sub_qualidade": 62.85, "icvs_quintil": 4, "cluster": 3}, "1508100": {"codmunicipio": "1508100", "nome": "Tucuruí", "uf": "PA", "regiao": "Norte", "lat": -2.117, "lon": -51.782, "populacao": 11508, "icvs": 75.36, "sub_desfechos": 75.68, "sub_acesso": 70.52, "sub_qualidade": 81.62, "icvs_quintil": 5, "cluster": 3}, "1508126": {"codmunicipio": "1508126", "nome": "Ulianópolis", "uf": "PA", "regiao": "Norte", "lat": -1.189, "lon": -53.929, "populacao": 65880, "icvs": 55.01, "sub_desfechos": 59.15, "sub_acesso": 49.08, "sub_qualidade": 56.68, "icvs_quintil": 4, "cluster": 5}, "1508159": {"codmunicipio": "1508159", "nome": "Uruará", "uf": "PA", "regiao": "Norte", "lat": -2.9895, "lon": -51.3539, "populacao": 140003, "icvs": 62.6, "sub_desfechos": 47.64, "sub_acesso": 75.96, "sub_qualidade": 67.85, "icvs_quintil": 4, "cluster": 1}, "1508209": {"codmunicipio": "1508209", "nome": "Vigia", "uf": "PA", "regiao": "Norte", "lat": -2.2812, "lon": -50.3249, "populacao": 13486, "icvs": 92.78, "sub_desfechos": 93.77, "sub_acesso": 100, "sub_qualidade": 81.07, "icvs_quintil": 5, "cluster": 3}, "1508308": {"codmunicipio": "1508308", "nome": "Viseu", "uf": "PA", "regiao": "Norte", "lat": -2.7766, "lon": -51.8191, "populacao": 69155, "icvs": 58.23, "sub_desfechos": 59.78, "sub_acesso": 54.66, "sub_qualidade": 60.73, "icvs_quintil": 4, "cluster": 5}, "1508357": {"codmunicipio": "1508357", "nome": "Vitória do Xingu", "uf": "PA", "regiao": "Norte", "lat": -4.0519, "lon": -54.6625, "populacao": 4872, "icvs": 66.37, "sub_desfechos": 75.59, "sub_acesso": 57.08, "sub_qualidade": 64.62, "icvs_quintil": 5, "cluster": 3}, "1508407": {"codmunicipio": "1508407", "nome": "Xinguara", "uf": "PA", "regiao": "Norte", "lat": -3.9382, "lon": -51.9458, "populacao": 6734, "icvs": 23.82, "sub_desfechos": 11.84, "sub_acesso": 35.65, "sub_qualidade": 26.41, "icvs_quintil": 1, "cluster": 3}, "1600055": {"codmunicipio": "1600055", "nome": "Serra do Navio", "uf": "AP", "regiao": "Norte", "lat": 0.7091, "lon": -51.5377, "populacao": 118665, "icvs": 50.37, "sub_desfechos": 63.04, "sub_acesso": 38.8, "sub_qualidade": 46.31, "icvs_quintil": 3, "cluster": 1}, "1600105": {"codmunicipio": "1600105", "nome": "Amapá", "uf": "AP", "regiao": "Norte", "lat": 3.2059, "lon": -51.5467, "populacao": 8066, "icvs": 75.64, "sub_desfechos": 73.63, "sub_acesso": 82.76, "sub_qualidade": 68.9, "icvs_quintil": 5, "cluster": 3}, "1600154": {"codmunicipio": "1600154", "nome": "Pedra Branca do Amapari", "uf": "AP", "regiao": "Norte", "lat": -0.4605, "lon": -50.7006, "populacao": 6005, "icvs": 65.27, "sub_desfechos": 54.1, "sub_acesso": 71.26, "sub_qualidade": 74.77, "icvs_quintil": 5, "cluster": 3}, "1600204": {"codmunicipio": "1600204", "nome": "Calçoene", "uf": "AP", "regiao": "Norte", "lat": 1.0848, "lon": -52.424, "populacao": 16725, "icvs": 52.48, "sub_desfechos": 71.56, "sub_acesso": 47.27, "sub_qualidade": 29.25, "icvs_quintil": 4, "cluster": 3}, "1600212": {"codmunicipio": "1600212", "nome": "Cutias", "uf": "AP", "regiao": "Norte", "lat": 3.3114, "lon": -51.9376, "populacao": 9800, "icvs": 67.87, "sub_desfechos": 73.83, "sub_acesso": 67.41, "sub_qualidade": 58.99, "icvs_quintil": 5, "cluster": 3}, "1600238": {"codmunicipio": "1600238", "nome": "Ferreira Gomes", "uf": "AP", "regiao": "Norte", "lat": -1.3702, "lon": -55.5865, "populacao": 37135, "icvs": 91.02, "sub_desfechos": 88.93, "sub_acesso": 96.73, "sub_qualidade": 86.37, "icvs_quintil": 5, "cluster": 4}, "1600253": {"codmunicipio": "1600253", "nome": "Itaubal", "uf": "AP", "regiao": "Norte", "lat": 1.1843, "lon": -54.2877, "populacao": 123801, "icvs": 59.04, "sub_desfechos": 70.96, "sub_acesso": 45.47, "sub_qualidade": 58.95, "icvs_quintil": 4, "cluster": 1}, "1600279": {"codmunicipio": "1600279", "nome": "Laranjal do Jari", "uf": "AP", "regiao": "Norte", "lat": 1.1861, "lon": -51.2992, "populacao": 24927, "icvs": 37.45, "sub_desfechos": 43.35, "sub_acesso": 29.85, "sub_qualidade": 38.64, "icvs_quintil": 2, "cluster": 4}, "1600303": {"codmunicipio": "1600303", "nome": "Macapá", "uf": "AP", "regiao": "Norte", "lat": 2.5922, "lon": -48.9819, "populacao": 11810, "icvs": 67.17, "sub_desfechos": 64.07, "sub_acesso": 70.9, "sub_qualidade": 66.91, "icvs_quintil": 5, "cluster": 3}, "1600402": {"codmunicipio": "1600402", "nome": "Mazagão", "uf": "AP", "regiao": "Norte", "lat": -0.4439, "lon": -54.1915, "populacao": 13259, "icvs": 52.99, "sub_desfechos": 57.18, "sub_acesso": 50.89, "sub_qualidade": 49.24, "icvs_quintil": 4, "cluster": 3}, "1600501": {"codmunicipio": "1600501", "nome": "Oiapoque", "uf": "AP", "regiao": "Norte", "lat": 2.3729, "lon": -51.4437, "populacao": 275763, "icvs": 94.0, "sub_desfechos": 100, "sub_acesso": 84.03, "sub_qualidade": 98.34, "icvs_quintil": 5, "cluster": 1}, "1600535": {"codmunicipio": "1600535", "nome": "Porto Grande", "uf": "AP", "regiao": "Norte", "lat": 0.3051, "lon": -52.1375, "populacao": 28579, "icvs": 57.05, "sub_desfechos": 61.07, "sub_acesso": 46.9, "sub_qualidade": 64.83, "icvs_quintil": 4, "cluster": 4}, "1600550": {"codmunicipio": "1600550", "nome": "Pracuúba", "uf": "AP", "regiao": "Norte", "lat": -0.2174, "lon": -49.3159, "populacao": 46304, "icvs": 42.29, "sub_desfechos": 55.2, "sub_acesso": 27.03, "sub_qualidade": 42.99, "icvs_quintil": 3, "cluster": 4}, "1600600": {"codmunicipio": "1600600", "nome": "Santana", "uf": "AP", "regiao": "Norte", "lat": 2.4295, "lon": -50.5547, "populacao": 56406, "icvs": 98.44, "sub_desfechos": 100, "sub_acesso": 100, "sub_qualidade": 93.78, "icvs_quintil": 5, "cluster": 5}, "1600709": {"codmunicipio": "1600709", "nome": "Tartarugalzinho", "uf": "AP", "regiao": "Norte", "lat": 3.1426, "lon": -52.1164, "populacao": 14022, "icvs": 96.32, "sub_desfechos": 100, "sub_acesso": 89.48, "sub_qualidade": 100, "icvs_quintil": 5, "cluster": 3}, "1600808": {"codmunicipio": "1600808", "nome": "Vitória do Jari", "uf": "AP", "regiao": "Norte", "lat": -1.2662, "lon": -52.1609, "populacao": 24917, "icvs": 53.01, "sub_desfechos": 51.13, "sub_acesso": 44.93, "sub_qualidade": 67.34, "icvs_quintil": 4, "cluster": 4}, "1700251": {"codmunicipio": "1700251", "nome": "Abreulândia", "uf": "TO", "regiao": "Norte", "lat": -12.4104, "lon": -50.3383, "populacao": 17218, "icvs": 45.64, "sub_desfechos": 35.22, "sub_acesso": 53.45, "sub_qualidade": 51.36, "icvs_quintil": 3, "cluster": 3}, "1700301": {"codmunicipio": "1700301", "nome": "Aguiarnópolis", "uf": "TO", "regiao": "Norte", "lat": -8.2473, "lon": -47.0536, "populacao": 5504, "icvs": 60.53, "sub_desfechos": 43.74, "sub_acesso": 81.04, "sub_qualidade": 58.69, "icvs_quintil": 4, "cluster": 3}, "1700350": {"codmunicipio": "1700350", "nome": "Aliança do Tocantins", "uf": "TO", "regiao": "Norte", "lat": -12.2321, "lon": -47.097, "populacao": 10901, "icvs": 73.05, "sub_desfechos": 75.99, "sub_acesso": 61.93, "sub_qualidade": 83.89, "icvs_quintil": 5, "cluster": 3}, "1700400": {"codmunicipio": "1700400", "nome": "Almas", "uf": "TO", "regiao": "Norte", "lat": -9.2223, "lon": -49.5532, "populacao": 1342, "icvs": 69.61, "sub_desfechos": 81.37, "sub_acesso": 62.2, "sub_qualidade": 61.17, "icvs_quintil": 5, "cluster": 3}, "1700707": {"codmunicipio": "1700707", "nome": "Alvorada", "uf": "TO", "regiao": "Norte", "lat": -11.9412, "lon": -45.8809, "populacao": 2302, "icvs": 69.11, "sub_desfechos": 79.2, "sub_acesso": 56.85, "sub_qualidade": 70.12, "icvs_quintil": 5, "cluster": 3}, "1701002": {"codmunicipio": "1701002", "nome": "Ananás", "uf": "TO", "regiao": "Norte", "lat": -10.102, "lon": -48.7998, "populacao": 9603, "icvs": 57.22, "sub_desfechos": 60.07, "sub_acesso": 62.57, "sub_qualidade": 45.16, "icvs_quintil": 4, "cluster": 3}, "1701051": {"codmunicipio": "1701051", "nome": "Angico", "uf": "TO", "regiao": "Norte", "lat": -12.0449, "lon": -49.3361, "populacao": 4932, "icvs": 40.56, "sub_desfechos": 37.34, "sub_acesso": 49.0, "sub_qualidade": 33.89, "icvs_quintil": 3, "cluster": 3}, "1701101": {"codmunicipio": "1701101", "nome": "Aparecida do Rio Negro", "uf": "TO", "regiao": "Norte", "lat": -11.8267, "lon": -49.3201, "populacao": 8240, "icvs": 83.95, "sub_desfechos": 75.51, "sub_acesso": 95.37, "sub_qualidade": 81.44, "icvs_quintil": 5, "cluster": 3}, "1701309": {"codmunicipio": "1701309", "nome": "Aragominas", "uf": "TO", "regiao": "Norte", "lat": -10.1782, "lon": -47.4467, "populacao": 39509, "icvs": 63.06, "sub_desfechos": 70.46, "sub_acesso": 59.85, "sub_qualidade": 55.7, "icvs_quintil": 4, "cluster": 4}, "1701903": {"codmunicipio": "1701903", "nome": "Araguacema", "uf": "TO", "regiao": "Norte", "lat": -11.6409, "lon": -46.8229, "populacao": 7729, "icvs": 39.65, "sub_desfechos": 31.53, "sub_acesso": 43.63, "sub_qualidade": 47.06, "icvs_quintil": 3, "cluster": 3}, "1702000": {"codmunicipio": "1702000", "nome": "Araguaçu", "uf": "TO", "regiao": "Norte", "lat": -14.9239, "lon": -46.3318, "populacao": 14693, "icvs": 89.2, "sub_desfechos": 84.8, "sub_acesso": 100, "sub_qualidade": 81.13, "icvs_quintil": 5, "cluster": 3}, "1702109": {"codmunicipio": "1702109", "nome": "Araguaína", "uf": "TO", "regiao": "Norte", "lat": -9.1894, "lon": -49.9064, "populacao": 65834, "icvs": 47.39, "sub_desfechos": 45.48, "sub_acesso": 43.58, "sub_qualidade": 55.79, "icvs_quintil": 3, "cluster": 5}, "1702158": {"codmunicipio": "1702158", "nome": "Araguanã", "uf": "TO", "regiao": "Norte", "lat": -8.2463, "lon": -46.9022, "populacao": 42667, "icvs": 34.66, "sub_desfechos": 35.91, "sub_acesso": 36.73, "sub_qualidade": 29.76, "icvs_quintil": 2, "cluster": 4}, "1702208": {"codmunicipio": "1702208", "nome": "Araguatins", "uf": "TO", "regiao": "Norte", "lat": -10.4959, "lon": -47.7902, "populacao": 33346, "icvs": 91.18, "sub_desfechos": 99.41, "sub_acesso": 80.38, "sub_qualidade": 93.12, "icvs_quintil": 5, "cluster": 4}, "1702307": {"codmunicipio": "1702307", "nome": "Arapoema", "uf": "TO", "regiao": "Norte", "lat": -8.7729, "lon": -50.6127, "populacao": 51358, "icvs": 88.01, "sub_desfechos": 90.6, "sub_acesso": 90.16, "sub_qualidade": 80.86, "icvs_quintil": 5, "cluster": 5}, "1702406": {"codmunicipio": "1702406", "nome": "Arraias", "uf": "TO", "regiao": "Norte", "lat": -9.4534, "lon": -47.4971, "populacao": 3794, "icvs": 45.77, "sub_desfechos": 55.85, "sub_acesso": 32.59, "sub_qualidade": 48.09, "icvs_quintil": 3, "cluster": 3}, "1702554": {"codmunicipio": "1702554", "nome": "Augustinópolis", "uf": "TO", "regiao": "Norte", "lat": -12.1362, "lon": -49.1197, "populacao": 4370, "icvs": 64.83, "sub_desfechos": 64.83, "sub_acesso": 76.44, "sub_qualidade": 48.57, "icvs_quintil": 5, "cluster": 3}, "1702703": {"codmunicipio": "1702703", "nome": "Aurora do Tocantins", "uf": "TO", "regiao": "Norte", "lat": -7.7904, "lon": -48.3373, "populacao": 18863, "icvs": 56.61, "sub_desfechos": 60.42, "sub_acesso": 59.47, "sub_qualidade": 46.51, "icvs_quintil": 4, "cluster": 3}, "1702901": {"codmunicipio": "1702901", "nome": "Axixá do Tocantins", "uf": "TO", "regiao": "Norte", "lat": -9.9189, "lon": -48.9611, "populacao": 10871, "icvs": 71.39, "sub_desfechos": 65.18, "sub_acesso": 70.63, "sub_qualidade": 82.37, "icvs_quintil": 5, "cluster": 3}, "1703008": {"codmunicipio": "1703008", "nome": "Babaçulândia", "uf": "TO", "regiao": "Norte", "lat": -11.9015, "lon": -45.2702, "populacao": 74425, "icvs": 66.27, "sub_desfechos": 62.67, "sub_acesso": 72.29, "sub_qualidade": 63.61, "icvs_quintil": 5, "cluster": 5}, "1703057": {"codmunicipio": "1703057", "nome": "Bandeirantes do Tocantins", "uf": "TO", "regiao": "Norte", "lat": -8.5609, "lon": -44.0654, "populacao": 3172, "icvs": 54.15, "sub_desfechos": 64.03, "sub_acesso": 41.82, "sub_qualidade": 55.62, "icvs_quintil": 4, "cluster": 3}, "1703073": {"codmunicipio": "1703073", "nome": "Barra do Ouro", "uf": "TO", "regiao": "Norte", "lat": -9.454, "lon": -48.0138, "populacao": 6378, "icvs": 50.94, "sub_desfechos": 63.33, "sub_acesso": 30.56, "sub_qualidade": 59.64, "icvs_quintil": 4, "cluster": 3}, "1703107": {"codmunicipio": "1703107", "nome": "Barrolândia", "uf": "TO", "regiao": "Norte", "lat": -11.2195, "lon": -45.7902, "populacao": 3673, "icvs": 41.49, "sub_desfechos": 36.4, "sub_acesso": 43.57, "sub_qualidade": 46.71, "icvs_quintil": 3, "cluster": 3}, "1703206": {"codmunicipio": "1703206", "nome": "Bernardo Sayão", "uf": "TO", "regiao": "Norte", "lat": -10.9165, "lon": -48.6223, "populacao": 6283, "icvs": 47.44, "sub_desfechos": 43.08, "sub_acesso": 52.03, "sub_qualidade": 47.97, "icvs_quintil": 3, "cluster": 3}, "1703305": {"codmunicipio": "1703305", "nome": "Bom Jesus do Tocantins", "uf": "TO", "regiao": "Norte", "lat": -11.0915, "lon": -48.3477, "populacao": 48314, "icvs": 35.37, "sub_desfechos": 24.04, "sub_acesso": 39.77, "sub_qualidade": 47.34, "icvs_quintil": 2, "cluster": 4}, "1703602": {"codmunicipio": "1703602", "nome": "Brasilândia do Tocantins", "uf": "TO", "regiao": "Norte", "lat": -12.4574, "lon": -50.4536, "populacao": 31735, "icvs": 59.57, "sub_desfechos": 46.37, "sub_acesso": 70.84, "sub_qualidade": 64.92, "icvs_quintil": 4, "cluster": 4}, "1703701": {"codmunicipio": "1703701", "nome": "Brejinho de Nazaré", "uf": "TO", "regiao": "Norte", "lat": -9.7297, "lon": -48.2326, "populacao": 29847, "icvs": 40.64, "sub_desfechos": 51.39, "sub_acesso": 35.59, "sub_qualidade": 30.5, "icvs_quintil": 3, "cluster": 4}, "1703800": {"codmunicipio": "1703800", "nome": "Buriti do Tocantins", "uf": "TO", "regiao": "Norte", "lat": -11.6701, "lon": -50.8282, "populacao": 9322, "icvs": 36.67, "sub_desfechos": 34.51, "sub_acesso": 46.99, "sub_qualidade": 25.66, "icvs_quintil": 2, "cluster": 3}, "1703826": {"codmunicipio": "1703826", "nome": "Cachoeirinha", "uf": "TO", "regiao": "Norte", "lat": -12.2869, "lon": -48.2988, "populacao": 12531, "icvs": 82.99, "sub_desfechos": 67.12, "sub_acesso": 100, "sub_qualidade": 84.56, "icvs_quintil": 5, "cluster": 3}, "1703842": {"codmunicipio": "1703842", "nome": "Campos Lindos", "uf": "TO", "regiao": "Norte", "lat": -10.6806, "lon": -49.718, "populacao": 11786, "icvs": 49.48, "sub_desfechos": 41.83, "sub_acesso": 58.69, "sub_qualidade": 48.82, "icvs_quintil": 3, "cluster": 3}, "1703867": {"codmunicipio": "1703867", "nome": "Cariri do Tocantins", "uf": "TO", "regiao": "Norte", "lat": -9.5962, "lon": -45.973, "populacao": 3811, "icvs": 89.83, "sub_desfechos": 99.06, "sub_acesso": 75.79, "sub_qualidade": 94.73, "icvs_quintil": 5, "cluster": 3}, "1703883": {"codmunicipio": "1703883", "nome": "Carmolândia", "uf": "TO", "regiao": "Norte", "lat": -10.4752, "lon": -51.8868, "populacao": 8166, "icvs": 63.6, "sub_desfechos": 55.22, "sub_acesso": 65.23, "sub_qualidade": 74.72, "icvs_quintil": 5, "cluster": 3}, "1703891": {"codmunicipio": "1703891", "nome": "Carrasco Bonito", "uf": "TO", "regiao": "Norte", "lat": -10.8874, "lon": -46.4996, "populacao": 7937, "icvs": 21.25, "sub_desfechos": 12.62, "sub_acesso": 30.94, "sub_qualidade": 21.49, "icvs_quintil": 1, "cluster": 3}, "1703909": {"codmunicipio": "1703909", "nome": "Caseara", "uf": "TO", "regiao": "Norte", "lat": -9.1608, "lon": -47.4783, "populacao": 8068, "icvs": 87.92, "sub_desfechos": 96.61, "sub_acesso": 94.71, "sub_qualidade": 64.53, "icvs_quintil": 5, "cluster": 3}, "1704105": {"codmunicipio": "1704105", "nome": "Centenário", "uf": "TO", "regiao": "Norte", "lat": -10.1474, "lon": -44.7259, "populacao": 5293, "icvs": 83.05, "sub_desfechos": 93.37, "sub_acesso": 75.69, "sub_qualidade": 76.85, "icvs_quintil": 5, "cluster": 3}, "1704600": {"codmunicipio": "1704600", "nome": "Chapada de Areia", "uf": "TO", "regiao": "Norte", "lat": -11.3273, "lon": -49.0611, "populacao": 44152, "icvs": 51.24, "sub_desfechos": 39.01, "sub_acesso": 65.28, "sub_qualidade": 51.15, "icvs_quintil": 4, "cluster": 4}, "1705102": {"codmunicipio": "1705102", "nome": "Chapada da Natividade", "uf": "TO", "regiao": "Norte", "lat": -11.9354, "lon": -48.5254, "populacao": 95714, "icvs": 73.62, "sub_desfechos": 78.69, "sub_acesso": 70.45, "sub_qualidade": 69.98, "icvs_quintil": 5, "cluster": 5}, "1705508": {"codmunicipio": "1705508", "nome": "Colinas do Tocantins", "uf": "TO", "regiao": "Norte", "lat": -9.1587, "lon": -48.5903, "populacao": 10903, "icvs": 63.95, "sub_desfechos": 78.36, "sub_acesso": 59.0, "sub_qualidade": 47.83, "icvs_quintil": 5, "cluster": 3}, "1705557": {"codmunicipio": "1705557", "nome": "Combinado", "uf": "TO", "regiao": "Norte", "lat": -13.2816, "lon": -48.2106, "populacao": 27327, "icvs": 73.88, "sub_desfechos": 58.8, "sub_acesso": 97.24, "sub_qualidade": 65.31, "icvs_quintil": 5, "cluster": 4}, "1705607": {"codmunicipio": "1705607", "nome": "Conceição do Tocantins", "uf": "TO", "regiao": "Norte", "lat": -13.0105, "lon": -49.1272, "populacao": 4474, "icvs": 79.99, "sub_desfechos": 79.84, "sub_acesso": 89.78, "sub_qualidade": 66.53, "icvs_quintil": 5, "cluster": 3}, "1706001": {"codmunicipio": "1706001", "nome": "Couto Magalhães", "uf": "TO", "regiao": "Norte", "lat": -10.539, "lon": -51.3577, "populacao": 9465, "icvs": 77.95, "sub_desfechos": 74.8, "sub_acesso": 84.9, "sub_qualidade": 73.25, "icvs_quintil": 5, "cluster": 3}, "1706100": {"codmunicipio": "1706100", "nome": "Cristalândia", "uf": "TO", "regiao": "Norte", "lat": -11.0723, "lon": -48.8362, "populacao": 16883, "icvs": 68.04, "sub_desfechos": 57.1, "sub_acesso": 77.29, "sub_qualidade": 72.58, "icvs_quintil": 5, "cluster": 3}, "1706258": {"codmunicipio": "1706258", "nome": "Crixás do Tocantins", "uf": "TO", "regiao": "Norte", "lat": -12.7297, "lon": -48.4118, "populacao": 22862, "icvs": 79.48, "sub_desfechos": 83.63, "sub_acesso": 78.7, "sub_qualidade": 73.93, "icvs_quintil": 5, "cluster": 4}, "1706506": {"codmunicipio": "1706506", "nome": "Darcinópolis", "uf": "TO", "regiao": "Norte", "lat": -8.6973, "lon": -48.6109, "populacao": 37584, "icvs": 68.6, "sub_desfechos": 75.36, "sub_acesso": 59.73, "sub_qualidade": 70.2, "icvs_quintil": 5, "cluster": 4}, "1707009": {"codmunicipio": "1707009", "nome": "Dianópolis", "uf": "TO", "regiao": "Norte", "lat": -7.8472, "lon": -49.4598, "populacao": 4245, "icvs": 65.76, "sub_desfechos": 70.68, "sub_acesso": 65.24, "sub_qualidade": 58.6, "icvs_quintil": 5, "cluster": 3}, "1707108": {"codmunicipio": "1707108", "nome": "Divinópolis do Tocantins", "uf": "TO", "regiao": "Norte", "lat": -10.6368, "lon": -48.3303, "populacao": 4892, "icvs": 70.6, "sub_desfechos": 41.87, "sub_acesso": 100, "sub_qualidade": 75.41, "icvs_quintil": 5, "cluster": 3}, "1707207": {"codmunicipio": "1707207", "nome": "Dois Irmãos do Tocantins", "uf": "TO", "regiao": "Norte", "lat": -11.8151, "lon": -48.0033, "populacao": 23560, "icvs": 75.5, "sub_desfechos": 78.38, "sub_acesso": 71.41, "sub_qualidade": 76.61, "icvs_quintil": 5, "cluster": 4}, "1707306": {"codmunicipio": "1707306", "nome": "Dueré", "uf": "TO", "regiao": "Norte", "lat": -11.1526, "lon": -46.1412, "populacao": 30298, "icvs": 58.72, "sub_desfechos": 55.75, "sub_acesso": 71.17, "sub_qualidade": 46.05, "icvs_quintil": 4, "cluster": 4}, "1707405": {"codmunicipio": "1707405", "nome": "Esperantina", "uf": "TO", "regiao": "Norte", "lat": -11.6342, "lon": -45.4365, "populacao": 18852, "icvs": 37.4, "sub_desfechos": 38.88, "sub_acesso": 31.85, "sub_qualidade": 42.82, "icvs_quintil": 2, "cluster": 3}, "1707553": {"codmunicipio": "1707553", "nome": "Fátima", "uf": "TO", "regiao": "Norte", "lat": -11.0291, "lon": -45.18, "populacao": 6535, "icvs": 91.43, "sub_desfechos": 93.74, "sub_acesso": 93.19, "sub_qualidade": 85.28, "icvs_quintil": 5, "cluster": 3}, "1707652": {"codmunicipio": "1707652", "nome": "Figueirópolis", "uf": "TO", "regiao": "Norte", "lat": -8.21, "lon": -48.6302, "populacao": 138678, "icvs": 38.45, "sub_desfechos": 41.77, "sub_acesso": 44.63, "sub_qualidade": 24.49, "icvs_quintil": 2, "cluster": 1}, "1707702": {"codmunicipio": "1707702", "nome": "Filadélfia", "uf": "TO", "regiao": "Norte", "lat": -10.3123, "lon": -48.717, "populacao": 3063, "icvs": 66.31, "sub_desfechos": 49.83, "sub_acesso": 82.48, "sub_qualidade": 70.06, "icvs_quintil": 5, "cluster": 3}, "1708205": {"codmunicipio": "1708205", "nome": "Formoso do Araguaia", "uf": "TO", "regiao": "Norte", "lat": -9.6473, "lon": -51.3781, "populacao": 26621, "icvs": 72.29, "sub_desfechos": 83.29, "sub_acesso": 66.61, "sub_qualidade": 62.66, "icvs_quintil": 5, "cluster": 4}, "1708254": {"codmunicipio": "1708254", "nome": "Tabocão", "uf": "TO", "regiao": "Norte", "lat": -10.9738, "lon": -48.8815, "populacao": 30161, "icvs": 43.28, "sub_desfechos": 40.01, "sub_acesso": 53.09, "sub_qualidade": 34.76, "icvs_quintil": 3, "cluster": 4}, "1708304": {"codmunicipio": "1708304", "nome": "Goianorte", "uf": "TO", "regiao": "Norte", "lat": -9.7202, "lon": -49.1854, "populacao": 22026, "icvs": 72.8, "sub_desfechos": 72.49, "sub_acesso": 73.61, "sub_qualidade": 72.16, "icvs_quintil": 5, "cluster": 4}, "1709005": {"codmunicipio": "1709005", "nome": "Goiatins", "uf": "TO", "regiao": "Norte", "lat": -9.4942, "lon": -48.6077, "populacao": 3543, "icvs": 79.61, "sub_desfechos": 74.73, "sub_acesso": 80.08, "sub_qualidade": 86.78, "icvs_quintil": 5, "cluster": 3}, "1709302": {"codmunicipio": "1709302", "nome": "Guaraí", "uf": "TO", "regiao": "Norte", "lat": -8.8464, "lon": -46.0853, "populacao": 6607, "icvs": 45.36, "sub_desfechos": 39.34, "sub_acesso": 56.06, "sub_qualidade": 40.02, "icvs_quintil": 3, "cluster": 3}, "1709500": {"codmunicipio": "1709500", "nome": "Gurupi", "uf": "TO", "regiao": "Norte", "lat": -7.5058, "lon": -50.0806, "populacao": 25173, "icvs": 61.46, "sub_desfechos": 66.16, "sub_acesso": 53.57, "sub_qualidade": 64.96, "icvs_quintil": 4, "cluster": 4}, "1709807": {"codmunicipio": "1709807", "nome": "Ipueiras", "uf": "TO", "regiao": "Norte", "lat": -9.5187, "lon": -47.394, "populacao": 5164, "icvs": 65.93, "sub_desfechos": 65.34, "sub_acesso": 73.23, "sub_qualidade": 56.64, "icvs_quintil": 5, "cluster": 3}, "1710508": {"codmunicipio": "1710508", "nome": "Itacajá", "uf": "TO", "regiao": "Norte", "lat": -11.465, "lon": -48.579, "populacao": 9073, "icvs": 49.28, "sub_desfechos": 54.07, "sub_acesso": 49.99, "sub_qualidade": 40.65, "icvs_quintil": 3, "cluster": 3}, "1710706": {"codmunicipio": "1710706", "nome": "Itaguatins", "uf": "TO", "regiao": "Norte", "lat": -9.8499, "lon": -51.1784, "populacao": 39252, "icvs": 55.3, "sub_desfechos": 63.94, "sub_acesso": 48.54, "sub_qualidade": 50.94, "icvs_quintil": 4, "cluster": 4}, "1710904": {"codmunicipio": "1710904", "nome": "Itapiratins", "uf": "TO", "regiao": "Norte", "lat": -10.935, "lon": -49.0802, "populacao": 4605, "icvs": 86.06, "sub_desfechos": 78.23, "sub_acesso": 100, "sub_qualidade": 79.05, "icvs_quintil": 5, "cluster": 3}, "1711100": {"codmunicipio": "1711100", "nome": "Itaporã do Tocantins", "uf": "TO", "regiao": "Norte", "lat": -9.5463, "lon": -43.5545, "populacao": 8348, "icvs": 49.66, "sub_desfechos": 52.3, "sub_acesso": 48.26, "sub_qualidade": 47.41, "icvs_quintil": 3, "cluster": 3}, "1711506": {"codmunicipio": "1711506", "nome": "Jaú do Tocantins", "uf": "TO", "regiao": "Norte", "lat": -9.5584, "lon": -45.6182, "populacao": 8412, "icvs": 66.69, "sub_desfechos": 59.96, "sub_acesso": 74.51, "sub_qualidade": 66.5, "icvs_quintil": 5, "cluster": 3}, "1711803": {"codmunicipio": "1711803", "nome": "Juarina", "uf": "TO", "regiao": "Norte", "lat": -7.7364, "lon": -49.6275, "populacao": 8819, "icvs": 84.61, "sub_desfechos": 87.11, "sub_acesso": 83.89, "sub_qualidade": 81.63, "icvs_quintil": 5, "cluster": 3}, "1711902": {"codmunicipio": "1711902", "nome": "Lagoa da Confusão", "uf": "TO", "regiao": "Norte", "lat": -10.8322, "lon": -49.9054, "populacao": 8186, "icvs": 32.13, "sub_desfechos": 22.67, "sub_acesso": 43.14, "sub_qualidade": 31.85, "icvs_quintil": 2, "cluster": 3}, "1711951": {"codmunicipio": "1711951", "nome": "Lagoa do Tocantins", "uf": "TO", "regiao": "Norte", "lat": -10.489, "lon": -49.948, "populacao": 12788, "icvs": 75.18, "sub_desfechos": 81.72, "sub_acesso": 73.9, "sub_qualidade": 66.52, "icvs_quintil": 5, "cluster": 3},